,street,city,zip,state,beds,baths,sq__ft,type,sale_date,price,latitude,longitude,Pred,Residuals
0,3526 HIGH ST,SACRAMENTO,95838,CA,2,1,836,Residential,Wed May 21 00:00:00 EDT 2008,59222,38.631913,-121.434879,184191.289893,-124969.289893
1,51 OMAHA CT,SACRAMENTO,95823,CA,3,1,1167,Residential,Wed May 21 00:00:00 EDT 2008,68212,38.478902,-121.431028,184191.289893,-115979.289893
2,2796 BRANCH ST,SACRAMENTO,95815,CA,2,1,796,Residential,Wed May 21 00:00:00 EDT 2008,68880,38.618305,-121.443839,184191.289893,-115311.289893
3,2805 JANETTE WAY,SACRAMENTO,95815,CA,2,1,852,Residential,Wed May 21 00:00:00 EDT 2008,69307,38.616835,-121.439146,184191.289893,-114884.289893
4,6001 MCMAHON DR,SACRAMENTO,95824,CA,2,1,797,Residential,Wed May 21 00:00:00 EDT 2008,81900,38.51947,-121.435768,184191.289893,-102291.289893
5,5828 PEPPERMILL CT,SACRAMENTO,95841,CA,3,1,1122,Condo,Wed May 21 00:00:00 EDT 2008,89921,38.662595,-121.327813,184191.289893,-94270.2898927
6,6048 OGDEN NASH WAY,SACRAMENTO,95842,CA,3,2,1104,Residential,Wed May 21 00:00:00 EDT 2008,90895,38.681659,-121.351705,248509.825129,-157614.825129
7,2561 19TH AVE,SACRAMENTO,95820,CA,3,1,1177,Residential,Wed May 21 00:00:00 EDT 2008,91002,38.535092,-121.481367,184191.289893,-93189.2898927
8,11150 TRINITY RIVER DR Unit 114,RANCHO CORDOVA,95670,CA,2,2,941,Condo,Wed May 21 00:00:00 EDT 2008,94905,38.621188,-121.270555,248509.825129,-153604.825129
9,7325 10TH ST,RIO LINDA,95673,CA,3,2,1146,Residential,Wed May 21 00:00:00 EDT 2008,98937,38.700909,-121.442979,248509.825129,-149572.825129
10,645 MORRISON AVE,SACRAMENTO,95838,CA,3,2,909,Residential,Wed May 21 00:00:00 EDT 2008,100309,38.637663,-121.45152,248509.825129,-148200.825129
11,4085 FAWN CIR,SACRAMENTO,95823,CA,3,2,1289,Residential,Wed May 21 00:00:00 EDT 2008,106250,38.470746,-121.458918,248509.825129,-142259.825129
12,2930 LA ROSA RD,SACRAMENTO,95815,CA,1,1,871,Residential,Wed May 21 00:00:00 EDT 2008,106852,38.618698,-121.435833,184191.289893,-77339.2898927
13,2113 KIRK WAY,SACRAMENTO,95822,CA,3,1,1020,Residential,Wed May 21 00:00:00 EDT 2008,107502,38.482215,-121.492603,184191.289893,-76689.2898927
14,4533 LOCH HAVEN WAY,SACRAMENTO,95842,CA,2,2,1022,Residential,Wed May 21 00:00:00 EDT 2008,108750,38.672914,-121.35934,248509.825129,-139759.825129
15,7340 HAMDEN PL,SACRAMENTO,95842,CA,2,2,1134,Condo,Wed May 21 00:00:00 EDT 2008,110700,38.700051,-121.351278,248509.825129,-137809.825129
16,6715 6TH ST,RIO LINDA,95673,CA,2,1,844,Residential,Wed May 21 00:00:00 EDT 2008,113263,38.689591,-121.452239,184191.289893,-70928.2898927
17,6236 LONGFORD DR Unit 1,CITRUS HEIGHTS,95621,CA,2,1,795,Condo,Wed May 21 00:00:00 EDT 2008,116250,38.679776,-121.314089,184191.289893,-67941.2898927
18,250 PERALTA AVE,SACRAMENTO,95833,CA,2,1,588,Residential,Wed May 21 00:00:00 EDT 2008,120000,38.612099,-121.469095,184191.289893,-64191.2898927
19,113 LEEWILL AVE,RIO LINDA,95673,CA,3,2,1356,Residential,Wed May 21 00:00:00 EDT 2008,121630,38.689999,-121.46322,248509.825129,-126879.825129
20,6118 STONEHAND AVE,CITRUS HEIGHTS,95621,CA,3,2,1118,Residential,Wed May 21 00:00:00 EDT 2008,122000,38.707851,-121.320707,248509.825129,-126509.825129
21,4882 BANDALIN WAY,SACRAMENTO,95823,CA,4,2,1329,Residential,Wed May 21 00:00:00 EDT 2008,122682,38.468173,-121.444071,248509.825129,-125827.825129
22,7511 OAKVALE CT,NORTH HIGHLANDS,95660,CA,4,2,1240,Residential,Wed May 21 00:00:00 EDT 2008,123000,38.702792,-121.38221,248509.825129,-125509.825129
23,9 PASTURE CT,SACRAMENTO,95834,CA,3,2,1601,Residential,Wed May 21 00:00:00 EDT 2008,124100,38.628631,-121.488097,248509.825129,-124409.825129
24,3729 BAINBRIDGE DR,NORTH HIGHLANDS,95660,CA,3,2,901,Residential,Wed May 21 00:00:00 EDT 2008,125000,38.701499,-121.37622,248509.825129,-123509.825129
25,3828 BLACKFOOT WAY,ANTELOPE,95843,CA,3,2,1088,Residential,Wed May 21 00:00:00 EDT 2008,126640,38.70974,-121.37377,248509.825129,-121869.825129
26,4108 NORTON WAY,SACRAMENTO,95820,CA,3,1,963,Residential,Wed May 21 00:00:00 EDT 2008,127281,38.537526,-121.478315,184191.289893,-56910.2898927
27,1469 JANRICK AVE,SACRAMENTO,95832,CA,3,2,1119,Residential,Wed May 21 00:00:00 EDT 2008,129000,38.476472,-121.501711,248509.825129,-119509.825129
28,9861 CULP WAY,SACRAMENTO,95827,CA,4,2,1380,Residential,Wed May 21 00:00:00 EDT 2008,131200,38.558423,-121.327948,248509.825129,-117309.825129
29,7825 CREEK VALLEY CIR,SACRAMENTO,95828,CA,3,2,1248,Residential,Wed May 21 00:00:00 EDT 2008,132000,38.472122,-121.404199,248509.825129,-116509.825129
30,5201 LAGUNA OAKS DR Unit 140,ELK GROVE,95758,CA,2,2,1039,Condo,Wed May 21 00:00:00 EDT 2008,133000,38.423251,-121.444489,248509.825129,-115509.825129
31,6768 MEDORA DR,NORTH HIGHLANDS,95660,CA,3,2,1152,Residential,Wed May 21 00:00:00 EDT 2008,134555,38.691161,-121.37192,248509.825129,-113954.825129
32,3100 EXPLORER DR,SACRAMENTO,95827,CA,3,2,1380,Residential,Wed May 21 00:00:00 EDT 2008,136500,38.566663,-121.332644,248509.825129,-112009.825129
33,7944 DOMINION WAY,ELVERTA,95626,CA,3,2,1116,Residential,Wed May 21 00:00:00 EDT 2008,138750,38.713182,-121.411227,248509.825129,-109759.825129
34,5201 LAGUNA OAKS DR Unit 162,ELK GROVE,95758,CA,2,2,1039,Condo,Wed May 21 00:00:00 EDT 2008,141000,38.423251,-121.444489,248509.825129,-107509.825129
35,3920 SHINING STAR DR,SACRAMENTO,95823,CA,3,2,1418,Residential,Wed May 21 00:00:00 EDT 2008,146250,38.48742,-121.462459,248509.825129,-102259.825129
36,5031 CORVAIR ST,NORTH HIGHLANDS,95660,CA,3,2,1082,Residential,Wed May 21 00:00:00 EDT 2008,147308,38.658246,-121.375469,248509.825129,-101201.825129
37,7661 NIXOS WAY,SACRAMENTO,95823,CA,4,2,1472,Residential,Wed May 21 00:00:00 EDT 2008,148750,38.479553,-121.463317,248509.825129,-99759.8251294
38,7044 CARTHY WAY,SACRAMENTO,95828,CA,4,2,1146,Residential,Wed May 21 00:00:00 EDT 2008,149593,38.49857,-121.420925,248509.825129,-98916.8251294
39,2442 LARKSPUR LN,SACRAMENTO,95825,CA,1,1,760,Condo,Wed May 21 00:00:00 EDT 2008,150000,38.58514,-121.403736,184191.289893,-34191.2898927
40,4800 WESTLAKE PKWY Unit 2109,SACRAMENTO,95835,CA,2,2,1304,Condo,Wed May 21 00:00:00 EDT 2008,152000,38.658812,-121.542345,248509.825129,-96509.8251294
41,2178 63RD AVE,SACRAMENTO,95822,CA,3,2,1207,Residential,Wed May 21 00:00:00 EDT 2008,154000,38.493955,-121.48966,248509.825129,-94509.8251294
42,8718 ELK WAY,ELK GROVE,95624,CA,3,2,1056,Residential,Wed May 21 00:00:00 EDT 2008,156896,38.41653,-121.379653,248509.825129,-91613.8251294
43,5708 RIDGEPOINT DR,ANTELOPE,95843,CA,2,2,1043,Residential,Wed May 21 00:00:00 EDT 2008,161250,38.72027,-121.331555,248509.825129,-87259.8251294
44,7315 KOALA CT,NORTH HIGHLANDS,95660,CA,4,2,1587,Residential,Wed May 21 00:00:00 EDT 2008,161500,38.699251,-121.371414,248509.825129,-87009.8251294
45,2622 ERIN DR,SACRAMENTO,95833,CA,4,1,1120,Residential,Wed May 21 00:00:00 EDT 2008,164000,38.613765,-121.488694,184191.289893,-20191.2898927
46,8421 SUNBLAZE WAY,SACRAMENTO,95823,CA,4,2,1580,Residential,Wed May 21 00:00:00 EDT 2008,165000,38.450543,-121.432538,248509.825129,-83509.8251294
47,7420 ALIX PKWY,SACRAMENTO,95823,CA,4,1,1955,Residential,Wed May 21 00:00:00 EDT 2008,166357,38.489405,-121.452811,184191.289893,-17834.2898927
48,3820 NATOMA WAY,SACRAMENTO,95838,CA,4,2,1656,Residential,Wed May 21 00:00:00 EDT 2008,166357,38.636748,-121.422159,248509.825129,-82152.8251294
49,4431 GREEN TREE DR,SACRAMENTO,95823,CA,3,2,1477,Residential,Wed May 21 00:00:00 EDT 2008,168000,38.499954,-121.454469,248509.825129,-80509.8251294
50,9417 SARA ST,ELK GROVE,95624,CA,3,2,1188,Residential,Wed May 21 00:00:00 EDT 2008,170000,38.415518,-121.370527,248509.825129,-78509.8251294
51,8299 HALBRITE WAY,SACRAMENTO,95828,CA,4,2,1590,Residential,Wed May 21 00:00:00 EDT 2008,173000,38.473814,-121.4,248509.825129,-75509.8251294
52,7223 KALLIE KAY LN,SACRAMENTO,95823,CA,3,2,1463,Residential,Wed May 21 00:00:00 EDT 2008,174250,38.477553,-121.419463,248509.825129,-74259.8251294
53,8156 STEINBECK WAY,SACRAMENTO,95828,CA,4,2,1714,Residential,Wed May 21 00:00:00 EDT 2008,174313,38.474853,-121.406326,248509.825129,-74196.8251294
54,7957 VALLEY GREEN DR,SACRAMENTO,95823,CA,3,2,1185,Residential,Wed May 21 00:00:00 EDT 2008,178480,38.465184,-121.434925,248509.825129,-70029.8251294
55,1122 WILD POPPY CT,GALT,95632,CA,3,2,1406,Residential,Wed May 21 00:00:00 EDT 2008,178760,38.287789,-121.294715,248509.825129,-69749.8251294
56,4520 BOMARK WAY,SACRAMENTO,95842,CA,4,2,1943,Multi-Family,Wed May 21 00:00:00 EDT 2008,179580,38.665724,-121.358576,248509.825129,-68929.8251294
57,9012 KIEFER BLVD,SACRAMENTO,95826,CA,3,2,1172,Residential,Wed May 21 00:00:00 EDT 2008,181000,38.547011,-121.366217,248509.825129,-67509.8251294
58,5332 SANDSTONE ST,CARMICHAEL,95608,CA,3,1,1152,Residential,Wed May 21 00:00:00 EDT 2008,181872,38.662105,-121.313945,184191.289893,-2319.2898927
59,5993 SAWYER CIR,SACRAMENTO,95823,CA,4,3,1851,Residential,Wed May 21 00:00:00 EDT 2008,182587,38.4473,-121.435218,312828.360366,-130241.360366
60,4844 CLYDEBANK WAY,ANTELOPE,95843,CA,3,2,1215,Residential,Wed May 21 00:00:00 EDT 2008,182716,38.714609,-121.347887,248509.825129,-65793.8251294
61,306 CAMELLIA WAY,GALT,95632,CA,3,2,1130,Residential,Wed May 21 00:00:00 EDT 2008,182750,38.260443,-121.297864,248509.825129,-65759.8251294
62,9021 MADISON AVE,ORANGEVALE,95662,CA,4,2,1603,Residential,Wed May 21 00:00:00 EDT 2008,183200,38.664186,-121.217511,248509.825129,-65309.8251294
63,404 6TH ST,GALT,95632,CA,3,1,1479,Residential,Wed May 21 00:00:00 EDT 2008,188741,38.251808,-121.302493,184191.289893,4549.7101073
64,8317 SUNNY CREEK WAY,SACRAMENTO,95823,CA,3,2,1420,Residential,Wed May 21 00:00:00 EDT 2008,189000,38.459041,-121.424644,248509.825129,-59509.8251294
65,2617 BASS CT,SACRAMENTO,95826,CA,3,2,1280,Residential,Wed May 21 00:00:00 EDT 2008,192067,38.560767,-121.377471,248509.825129,-56442.8251294
66,7005 TIANT WAY,ELK GROVE,95758,CA,3,2,1586,Residential,Wed May 21 00:00:00 EDT 2008,194000,38.422811,-121.423285,248509.825129,-54509.8251294
67,7895 CABER WAY,ANTELOPE,95843,CA,3,2,1362,Residential,Wed May 21 00:00:00 EDT 2008,194818,38.711279,-121.393449,248509.825129,-53691.8251294
68,7624 BOGEY CT,SACRAMENTO,95828,CA,4,4,2162,Multi-Family,Wed May 21 00:00:00 EDT 2008,195000,38.48009,-121.415102,377146.895603,-182146.895603
69,6930 HAMPTON COVE WAY,SACRAMENTO,95823,CA,3,2,1266,Residential,Wed May 21 00:00:00 EDT 2008,198000,38.44004,-121.421012,248509.825129,-50509.8251294
70,8708 MESA BROOK WAY,ELK GROVE,95624,CA,4,2,1715,Residential,Wed May 21 00:00:00 EDT 2008,199500,38.44076,-121.385792,248509.825129,-49009.8251294
71,120 GRANT LN,FOLSOM,95630,CA,3,2,1820,Residential,Wed May 21 00:00:00 EDT 2008,200000,38.687742,-121.17104,248509.825129,-48509.8251294
72,5907 ELLERSLEE DR,CARMICHAEL,95608,CA,3,1,936,Residential,Wed May 21 00:00:00 EDT 2008,200000,38.664468,-121.32683,184191.289893,15808.7101073
73,17 SERASPI CT,SACRAMENTO,95834,CA,0,0,0,Residential,Wed May 21 00:00:00 EDT 2008,206000,38.631481,-121.50188,119872.754656,86127.245344
74,170 PENHOW CIR,SACRAMENTO,95834,CA,3,2,1511,Residential,Wed May 21 00:00:00 EDT 2008,208000,38.653439,-121.535169,248509.825129,-40509.8251294
75,8345 STAR THISTLE WAY,SACRAMENTO,95823,CA,4,2,1590,Residential,Wed May 21 00:00:00 EDT 2008,212864,38.454349,-121.439239,248509.825129,-35645.8251294
76,9080 FRESCA WAY,ELK GROVE,95758,CA,4,2,1596,Residential,Wed May 21 00:00:00 EDT 2008,221000,38.427818,-121.424026,248509.825129,-27509.8251294
77,391 NATALINO CIR,SACRAMENTO,95835,CA,2,2,1341,Residential,Wed May 21 00:00:00 EDT 2008,221000,38.67307,-121.506373,248509.825129,-27509.8251294
78,8373 BLACKMAN WAY,ELK GROVE,95624,CA,5,3,2136,Residential,Wed May 21 00:00:00 EDT 2008,223058,38.435436,-121.394536,312828.360366,-89770.3603661
79,9837 CORTE DORADO CT,ELK GROVE,95624,CA,4,2,1616,Residential,Wed May 21 00:00:00 EDT 2008,227887,38.400676,-121.38101,248509.825129,-20622.8251294
80,5037 J PKWY,SACRAMENTO,95823,CA,3,2,1478,Residential,Wed May 21 00:00:00 EDT 2008,231477,38.491399,-121.443547,248509.825129,-17032.8251294
81,10245 LOS PALOS DR,RANCHO CORDOVA,95670,CA,3,2,1287,Residential,Wed May 21 00:00:00 EDT 2008,234697,38.593699,-121.31089,248509.825129,-13812.8251294
82,6613 NAVION DR,CITRUS HEIGHTS,95621,CA,4,2,1277,Residential,Wed May 21 00:00:00 EDT 2008,235000,38.702855,-121.31308,248509.825129,-13509.8251294
83,2887 AZEVEDO DR,SACRAMENTO,95833,CA,4,2,1448,Residential,Wed May 21 00:00:00 EDT 2008,236000,38.618457,-121.509439,248509.825129,-12509.8251294
84,9186 KINBRACE CT,SACRAMENTO,95829,CA,4,3,2235,Residential,Wed May 21 00:00:00 EDT 2008,236685,38.463355,-121.358936,312828.360366,-76143.3603661
85,4243 MIDDLEBURY WAY,MATHER,95655,CA,3,2,2093,Residential,Wed May 21 00:00:00 EDT 2008,237800,38.547991,-121.280483,248509.825129,-10709.8251294
86,1028 FALLON PLACE CT,RIO LINDA,95673,CA,3,2,1193,Residential,Wed May 21 00:00:00 EDT 2008,240122,38.693818,-121.441153,248509.825129,-8387.8251294
87,4804 NORIKER DR,ELK GROVE,95757,CA,3,2,2163,Residential,Wed May 21 00:00:00 EDT 2008,242638,38.400974,-121.448424,248509.825129,-5871.8251294
88,7713 HARVEST WOODS DR,SACRAMENTO,95828,CA,3,2,1269,Residential,Wed May 21 00:00:00 EDT 2008,244000,38.478198,-121.412911,248509.825129,-4509.8251294
89,2866 KARITSA AVE,SACRAMENTO,95833,CA,0,0,0,Residential,Wed May 21 00:00:00 EDT 2008,244500,38.626671,-121.52597,119872.754656,124627.245344
90,6913 RICHEVE WAY,SACRAMENTO,95828,CA,3,1,958,Residential,Wed May 21 00:00:00 EDT 2008,244960,38.502519,-121.420769,184191.289893,60768.7101073
91,8636 TEGEA WAY,ELK GROVE,95624,CA,5,3,2508,Residential,Wed May 21 00:00:00 EDT 2008,245918,38.443832,-121.382087,312828.360366,-66910.3603661
92,5448 MAIDSTONE WAY,CITRUS HEIGHTS,95621,CA,3,2,1305,Residential,Wed May 21 00:00:00 EDT 2008,250000,38.665395,-121.293288,248509.825129,1490.1748706
93,18 OLLIE CT,ELK GROVE,95758,CA,4,2,1591,Residential,Wed May 21 00:00:00 EDT 2008,250000,38.444909,-121.412345,248509.825129,1490.1748706
94,4010 ALEX LN,CARMICHAEL,95608,CA,2,2,1326,Condo,Wed May 21 00:00:00 EDT 2008,250134,38.637028,-121.312963,248509.825129,1624.1748706
95,4901 MILLNER WAY,ELK GROVE,95757,CA,3,2,1843,Residential,Wed May 21 00:00:00 EDT 2008,254200,38.38692,-121.447349,248509.825129,5690.1748706
96,4818 BRITTNEY LEE CT,SACRAMENTO,95841,CA,4,2,1921,Residential,Wed May 21 00:00:00 EDT 2008,254200,38.653917,-121.34218,248509.825129,5690.1748706
97,5529 LAGUNA PARK DR,ELK GROVE,95758,CA,5,3,2790,Residential,Wed May 21 00:00:00 EDT 2008,258000,38.42568,-121.438062,312828.360366,-54828.3603661
98,230 CANDELA CIR,SACRAMENTO,95835,CA,3,2,1541,Residential,Wed May 21 00:00:00 EDT 2008,260000,38.656251,-121.547572,248509.825129,11490.1748706
99,4900 71ST ST,SACRAMENTO,95820,CA,3,1,1018,Residential,Wed May 21 00:00:00 EDT 2008,260014,38.53151,-121.421089,184191.289893,75822.7101073
100,12209 CONSERVANCY WAY,RANCHO CORDOVA,95742,CA,0,0,0,Residential,Wed May 21 00:00:00 EDT 2008,263500,38.553867,-121.219141,119872.754656,143627.245344
101,4236 NATOMAS CENTRAL DR,SACRAMENTO,95834,CA,3,2,1672,Condo,Wed May 21 00:00:00 EDT 2008,265000,38.648879,-121.544023,248509.825129,16490.1748706
102,5615 LUPIN LN,POLLOCK PINES,95726,CA,3,2,1380,Residential,Wed May 21 00:00:00 EDT 2008,265000,38.708315,-120.603872,248509.825129,16490.1748706
103,5625 JAMES WAY,SACRAMENTO,95822,CA,3,1,975,Residential,Wed May 21 00:00:00 EDT 2008,271742,38.523947,-121.484946,184191.289893,87550.7101073
104,7842 LAHONTAN CT,SACRAMENTO,95829,CA,4,3,2372,Residential,Wed May 21 00:00:00 EDT 2008,273750,38.472976,-121.318633,312828.360366,-39078.3603661
105,6850 21ST ST,SACRAMENTO,95822,CA,3,2,1446,Residential,Wed May 21 00:00:00 EDT 2008,275086,38.502194,-121.490795,248509.825129,26576.1748706
106,2900 BLAIR RD,POLLOCK PINES,95726,CA,2,2,1284,Residential,Wed May 21 00:00:00 EDT 2008,280908,38.75485,-120.60476,248509.825129,32398.1748706
107,2064 EXPEDITION WAY,SACRAMENTO,95832,CA,4,3,3009,Residential,Wed May 21 00:00:00 EDT 2008,280987,38.474099,-121.490711,312828.360366,-31841.3603661
108,2912 NORCADE CIR,SACRAMENTO,95826,CA,8,4,3612,Multi-Family,Wed May 21 00:00:00 EDT 2008,282400,38.559505,-121.364839,377146.895603,-94746.8956028
109,9507 SEA CLIFF WAY,ELK GROVE,95758,CA,4,2,2056,Residential,Wed May 21 00:00:00 EDT 2008,285000,38.410992,-121.479043,248509.825129,36490.1748706
110,8882 AUTUMN GOLD CT,ELK GROVE,95624,CA,4,2,1993,Residential,Wed May 21 00:00:00 EDT 2008,287417,38.4439,-121.37255,248509.825129,38907.1748706
111,5322 WHITE LOTUS WAY,ELK GROVE,95757,CA,3,2,1857,Residential,Wed May 21 00:00:00 EDT 2008,291000,38.391538,-121.442596,248509.825129,42490.1748706
112,1838 CASTRO WAY,SACRAMENTO,95818,CA,2,1,1126,Residential,Wed May 21 00:00:00 EDT 2008,292024,38.556098,-121.490787,184191.289893,107832.710107
113,10158 CRAWFORD WAY,SACRAMENTO,95827,CA,4,4,2213,Multi-Family,Wed May 21 00:00:00 EDT 2008,297000,38.5703,-121.315735,377146.895603,-80146.8956028
114,7731 MASTERS ST,ELK GROVE,95758,CA,5,3,2494,Residential,Wed May 21 00:00:00 EDT 2008,297000,38.442031,-121.410873,312828.360366,-15828.3603661
115,4925 PERCHERON DR,ELK GROVE,95757,CA,3,2,1843,Residential,Wed May 21 00:00:00 EDT 2008,298000,38.40154,-121.447649,248509.825129,49490.1748706
116,2010 PROMONTORY POINT LN,GOLD RIVER,95670,CA,2,2,1520,Residential,Wed May 21 00:00:00 EDT 2008,299000,38.62869,-121.261669,248509.825129,50490.1748706
117,4727 SAVOIE WAY,SACRAMENTO,95835,CA,5,3,2800,Residential,Wed May 21 00:00:00 EDT 2008,304037,38.658182,-121.549521,312828.360366,-8791.3603661
118,8664 MAGNOLIA HILL WAY,ELK GROVE,95624,CA,4,2,2309,Residential,Wed May 21 00:00:00 EDT 2008,311000,38.442352,-121.389675,248509.825129,62490.1748706
119,9570 HARVEST ROSE WAY,SACRAMENTO,95827,CA,5,3,2367,Residential,Wed May 21 00:00:00 EDT 2008,315537,38.555993,-121.340352,312828.360366,2708.6396339
120,4359 CREGAN CT,RANCHO CORDOVA,95742,CA,5,4,3516,Residential,Wed May 21 00:00:00 EDT 2008,320000,38.545128,-121.224922,377146.895603,-57146.8956028
121,5337 DUSTY ROSE WAY,RANCHO CORDOVA,95742,CA,0,0,0,Residential,Wed May 21 00:00:00 EDT 2008,320000,38.528575,-121.2286,119872.754656,200127.245344
122,8929 SUTTERS GOLD DR,SACRAMENTO,95826,CA,4,3,1914,Residential,Wed May 21 00:00:00 EDT 2008,328360,38.550848,-121.370224,312828.360366,15531.6396339
123,8025 PEERLESS AVE,ORANGEVALE,95662,CA,2,1,1690,Residential,Wed May 21 00:00:00 EDT 2008,334150,38.71147,-121.216214,184191.289893,149958.710107
124,4620 WELERA WAY,ELK GROVE,95757,CA,3,3,2725,Residential,Wed May 21 00:00:00 EDT 2008,335750,38.398609,-121.450148,312828.360366,22921.6396339
125,9723 TERRAPIN CT,ELK GROVE,95757,CA,4,3,2354,Residential,Wed May 21 00:00:00 EDT 2008,335750,38.403492,-121.430224,312828.360366,22921.6396339
126,2115 SMOKESTACK WAY,SACRAMENTO,95833,CA,0,0,0,Residential,Wed May 21 00:00:00 EDT 2008,339500,38.602416,-121.542965,119872.754656,219627.245344
127,100 REBECCA WAY,FOLSOM,95630,CA,3,2,2185,Residential,Wed May 21 00:00:00 EDT 2008,344250,38.68479,-121.149199,248509.825129,95740.1748706
128,9488 OAK VILLAGE WAY,ELK GROVE,95758,CA,4,2,1801,Residential,Wed May 21 00:00:00 EDT 2008,346210,38.41333,-121.404999,248509.825129,97700.1748706
129,8495 DARTFORD DR,SACRAMENTO,95823,CA,3,3,1961,Residential,Wed May 21 00:00:00 EDT 2008,347029,38.448507,-121.421346,312828.360366,34200.6396339
130,6708 PONTA DO SOL WAY,ELK GROVE,95757,CA,4,2,3134,Residential,Wed May 21 00:00:00 EDT 2008,347650,38.380635,-121.425538,248509.825129,99140.1748706
131,4143 SEA MEADOW WAY,SACRAMENTO,95823,CA,4,3,1915,Residential,Wed May 21 00:00:00 EDT 2008,351300,38.46534,-121.457519,312828.360366,38471.6396339
132,3020 RICHARDSON CIR,EL DORADO HILLS,95762,CA,3,2,0,Residential,Wed May 21 00:00:00 EDT 2008,352000,38.691299,-121.081752,248509.825129,103490.174871
133,8082 LINDA ISLE LN,SACRAMENTO,95831,CA,0,0,0,Residential,Wed May 21 00:00:00 EDT 2008,370000,38.4772,-121.5215,119872.754656,250127.245344
134,15300 MURIETA SOUTH PKWY,RANCHO MURIETA,95683,CA,4,3,2734,Residential,Wed May 21 00:00:00 EDT 2008,370500,38.4874,-121.075129,312828.360366,57671.6396339
135,11215 SHARRMONT CT,WILTON,95693,CA,3,2,2110,Residential,Wed May 21 00:00:00 EDT 2008,372000,38.35062,-121.228349,248509.825129,123490.174871
136,7105 DANBERG WAY,ELK GROVE,95757,CA,5,3,3164,Residential,Wed May 21 00:00:00 EDT 2008,375000,38.4019,-121.420388,312828.360366,62171.6396339
137,5579 JERRY LITELL WAY,SACRAMENTO,95835,CA,5,3,3599,Residential,Wed May 21 00:00:00 EDT 2008,381300,38.677126,-121.500519,312828.360366,68471.6396339
138,1050 FOXHALL WAY,SACRAMENTO,95831,CA,4,2,2054,Residential,Wed May 21 00:00:00 EDT 2008,381942,38.509819,-121.519661,248509.825129,133432.174871
139,7837 ABBINGTON WAY,ANTELOPE,95843,CA,4,2,1830,Residential,Wed May 21 00:00:00 EDT 2008,387731,38.709873,-121.339472,248509.825129,139221.174871
140,1300 F ST,SACRAMENTO,95814,CA,3,3,1627,Residential,Wed May 21 00:00:00 EDT 2008,391000,38.58355,-121.487289,312828.360366,78171.6396339
141,6801 RAWLEY WAY,ELK GROVE,95757,CA,4,3,3440,Residential,Wed May 21 00:00:00 EDT 2008,394470,38.408351,-121.423925,312828.360366,81641.6396339
142,1693 SHELTER COVE DR,GREENWOOD,95635,CA,3,2,2846,Residential,Wed May 21 00:00:00 EDT 2008,395000,38.945357,-120.908822,248509.825129,146490.174871
143,9361 WADDELL LN,ELK GROVE,95624,CA,4,3,2359,Residential,Wed May 21 00:00:00 EDT 2008,400186,38.450829,-121.349928,312828.360366,87357.6396339
144,10 SEA FOAM CT,SACRAMENTO,95831,CA,3,3,2052,Residential,Wed May 21 00:00:00 EDT 2008,415000,38.487885,-121.545947,312828.360366,102171.639634
145,6945 RIO TEJO WAY,ELK GROVE,95757,CA,5,3,3433,Residential,Wed May 21 00:00:00 EDT 2008,425000,38.385638,-121.422616,312828.360366,112171.639634
146,4186 TULIP PARK WAY,RANCHO CORDOVA,95742,CA,5,3,3615,Residential,Wed May 21 00:00:00 EDT 2008,430000,38.550617,-121.23526,312828.360366,117171.639634
147,9278 DAIRY CT,ELK GROVE,95624,CA,0,0,0,Residential,Wed May 21 00:00:00 EDT 2008,445000,38.420338,-121.363757,119872.754656,325127.245344
148,207 ORANGE BLOSSOM CIR Unit C,FOLSOM,95630,CA,5,3,2687,Residential,Wed May 21 00:00:00 EDT 2008,460000,38.646273,-121.175322,312828.360366,147171.639634
149,6507 RIO DE ONAR WAY,ELK GROVE,95757,CA,4,3,2724,Residential,Wed May 21 00:00:00 EDT 2008,461000,38.38253,-121.428007,312828.360366,148171.639634
150,7004 RAWLEY WAY,ELK GROVE,95757,CA,4,3,3440,Residential,Wed May 21 00:00:00 EDT 2008,489332,38.406421,-121.422081,312828.360366,176503.639634
151,6503 RIO DE ONAR WAY,ELK GROVE,95757,CA,5,4,3508,Residential,Wed May 21 00:00:00 EDT 2008,510000,38.38253,-121.428038,377146.895603,132853.104397
152,2217 APPALOOSA CT,FOLSOM,95630,CA,4,2,2462,Residential,Wed May 21 00:00:00 EDT 2008,539000,38.655167,-121.090178,248509.825129,290490.174871
153,868 HILDEBRAND CIR,FOLSOM,95630,CA,0,0,0,Residential,Wed May 21 00:00:00 EDT 2008,585000,38.670947,-121.097727,119872.754656,465127.245344
154,6030 PALERMO WAY,EL DORADO HILLS,95762,CA,4,3,0,Residential,Wed May 21 00:00:00 EDT 2008,600000,38.672761,-121.050378,312828.360366,287171.639634
155,4070 REDONDO DR,EL DORADO HILLS,95762,CA,4,3,0,Residential,Wed May 21 00:00:00 EDT 2008,606238,38.666807,-121.06483,312828.360366,293409.639634
156,4004 CRESTA WAY,SACRAMENTO,95864,CA,3,3,2325,Residential,Wed May 21 00:00:00 EDT 2008,660000,38.591618,-121.370626,312828.360366,347171.639634
157,315 JUMEL CT,EL DORADO HILLS,95762,CA,6,5,0,Residential,Wed May 21 00:00:00 EDT 2008,830000,38.669931,-121.05958,441465.430839,388534.569161
158,6272 LONGFORD DR Unit 1,CITRUS HEIGHTS,95621,CA,2,1,795,Condo,Tue May 20 00:00:00 EDT 2008,69000,38.680923,-121.313945,184191.289893,-115191.289893
159,3432 Y ST,SACRAMENTO,95817,CA,4,2,1099,Residential,Tue May 20 00:00:00 EDT 2008,70000,38.554967,-121.468046,248509.825129,-178509.825129
160,9512 EMERALD PARK DR Unit 3,ELK GROVE,95624,CA,2,1,840,Condo,Tue May 20 00:00:00 EDT 2008,71000,38.40573,-121.369832,184191.289893,-113191.289893
161,3132 CLAY ST,SACRAMENTO,95815,CA,2,1,800,Residential,Tue May 20 00:00:00 EDT 2008,78000,38.624678,-121.439203,184191.289893,-106191.289893
162,5221 38TH AVE,SACRAMENTO,95824,CA,2,1,746,Residential,Tue May 20 00:00:00 EDT 2008,78400,38.518044,-121.443555,184191.289893,-105791.289893
163,6112 HERMOSA ST,SACRAMENTO,95822,CA,3,1,1067,Residential,Tue May 20 00:00:00 EDT 2008,80000,38.515125,-121.480416,184191.289893,-104191.289893
164,483 ARCADE BLVD,SACRAMENTO,95815,CA,4,2,1316,Residential,Tue May 20 00:00:00 EDT 2008,89000,38.623571,-121.454884,248509.825129,-159509.825129
165,671 SONOMA AVE,SACRAMENTO,95815,CA,3,1,1337,Residential,Tue May 20 00:00:00 EDT 2008,90000,38.622953,-121.450142,184191.289893,-94191.2898927
166,5980 79TH ST,SACRAMENTO,95824,CA,2,1,868,Residential,Tue May 20 00:00:00 EDT 2008,90000,38.518373,-121.411779,184191.289893,-94191.2898927
167,7607 ELDER CREEK RD,SACRAMENTO,95824,CA,3,1,924,Residential,Tue May 20 00:00:00 EDT 2008,92000,38.51055,-121.414768,184191.289893,-92191.2898927
168,5028 14TH AVE,SACRAMENTO,95820,CA,2,1,610,Residential,Tue May 20 00:00:00 EDT 2008,93675,38.53942,-121.446894,184191.289893,-90516.2898927
169,14788 NATCHEZ CT,RANCHO MURIETA,95683,CA,0,0,0,Residential,Tue May 20 00:00:00 EDT 2008,97750,38.492287,-121.100032,119872.754656,-22122.754656
170,1069 ACACIA AVE,SACRAMENTO,95815,CA,2,1,1220,Residential,Tue May 20 00:00:00 EDT 2008,98000,38.621998,-121.442238,184191.289893,-86191.2898927
171,5201 LAGUNA OAKS DR Unit 199,ELK GROVE,95758,CA,1,1,722,Condo,Tue May 20 00:00:00 EDT 2008,98000,38.423251,-121.444489,184191.289893,-86191.2898927
172,3847 LAS PASAS WAY,SACRAMENTO,95864,CA,3,1,1643,Residential,Tue May 20 00:00:00 EDT 2008,99000,38.588672,-121.373916,184191.289893,-85191.2898927
173,5201 LAGUNA OAKS DR Unit 172,ELK GROVE,95758,CA,1,1,722,Condo,Tue May 20 00:00:00 EDT 2008,100000,38.423251,-121.444489,184191.289893,-84191.2898927
174,1121 CREEKSIDE WAY,GALT,95632,CA,3,1,1080,Residential,Tue May 20 00:00:00 EDT 2008,106716,38.241514,-121.312199,184191.289893,-77475.2898927
175,5307 CABRILLO WAY,SACRAMENTO,95820,CA,3,1,1039,Residential,Tue May 20 00:00:00 EDT 2008,111000,38.52712,-121.435348,184191.289893,-73191.2898927
176,3725 DON JULIO BLVD,NORTH HIGHLANDS,95660,CA,3,1,1051,Residential,Tue May 20 00:00:00 EDT 2008,111000,38.67895,-121.379406,184191.289893,-73191.2898927
177,4803 MCCLOUD DR,SACRAMENTO,95842,CA,2,2,967,Residential,Tue May 20 00:00:00 EDT 2008,114800,38.682279,-121.352817,248509.825129,-133709.825129
178,10542 SILVERWOOD WAY,RANCHO CORDOVA,95670,CA,3,1,1098,Residential,Tue May 20 00:00:00 EDT 2008,120108,38.587156,-121.295778,184191.289893,-64083.2898927
179,6318 39TH AVE,SACRAMENTO,95824,CA,3,1,1050,Residential,Tue May 20 00:00:00 EDT 2008,123225,38.518942,-121.430158,184191.289893,-60966.2898927
180,211 MCDANIEL CIR,SACRAMENTO,95838,CA,3,2,1110,Residential,Tue May 20 00:00:00 EDT 2008,123750,38.636565,-121.460383,248509.825129,-124759.825129
181,3800 LYNHURST WAY,NORTH HIGHLANDS,95660,CA,3,1,888,Residential,Tue May 20 00:00:00 EDT 2008,125000,38.650445,-121.374861,184191.289893,-59191.2898927
182,6139 HERMOSA ST,SACRAMENTO,95822,CA,3,2,1120,Residential,Tue May 20 00:00:00 EDT 2008,125000,38.514665,-121.480411,248509.825129,-123509.825129
183,2505 RHINE WAY,ELVERTA,95626,CA,3,2,1080,Residential,Tue May 20 00:00:00 EDT 2008,126000,38.717976,-121.407684,248509.825129,-122509.825129
184,3692 PAYNE WAY,NORTH HIGHLANDS,95660,CA,3,1,957,Residential,Tue May 20 00:00:00 EDT 2008,129000,38.66654,-121.378298,184191.289893,-55191.2898927
185,604 MORRISON AVE,SACRAMENTO,95838,CA,2,1,952,Residential,Tue May 20 00:00:00 EDT 2008,134000,38.637678,-121.452476,184191.289893,-50191.2898927
186,648 SANTA ANA AVE,SACRAMENTO,95838,CA,3,2,1211,Residential,Tue May 20 00:00:00 EDT 2008,135000,38.658478,-121.450409,248509.825129,-113509.825129
187,14 ASHLEY OAKS CT,SACRAMENTO,95815,CA,3,2,1264,Residential,Tue May 20 00:00:00 EDT 2008,135500,38.61779,-121.436765,248509.825129,-113009.825129
188,3174 NORTHVIEW DR,SACRAMENTO,95833,CA,3,1,1080,Residential,Tue May 20 00:00:00 EDT 2008,140000,38.623817,-121.477827,184191.289893,-44191.2898927
189,840 TRANQUIL LN,GALT,95632,CA,3,2,1266,Residential,Tue May 20 00:00:00 EDT 2008,140000,38.270617,-121.299205,248509.825129,-108509.825129
190,5333 PRIMROSE DR Unit 19A,FAIR OAKS,95628,CA,2,2,994,Condo,Tue May 20 00:00:00 EDT 2008,142500,38.662785,-121.276272,248509.825129,-106009.825129
191,1035 MILLET WAY,SACRAMENTO,95834,CA,3,2,1202,Residential,Tue May 20 00:00:00 EDT 2008,143500,38.631056,-121.48508,248509.825129,-105009.825129
192,5201 LAGUNA OAKS DR Unit 126,ELK GROVE,95758,CA,0,0,0,Condo,Tue May 20 00:00:00 EDT 2008,145000,38.423251,-121.444489,119872.754656,25127.245344
193,3328 22ND AVE,SACRAMENTO,95820,CA,2,1,722,Residential,Tue May 20 00:00:00 EDT 2008,145000,38.532727,-121.470783,184191.289893,-39191.2898927
194,8001 HARTWICK WAY,SACRAMENTO,95828,CA,4,2,1448,Residential,Tue May 20 00:00:00 EDT 2008,145000,38.488623,-121.410582,248509.825129,-103509.825129
195,7812 HARTWICK WAY,SACRAMENTO,95828,CA,3,2,1188,Residential,Tue May 20 00:00:00 EDT 2008,145000,38.488611,-121.412808,248509.825129,-103509.825129
196,4207 PAINTER WAY,NORTH HIGHLANDS,95660,CA,4,2,1183,Residential,Tue May 20 00:00:00 EDT 2008,146000,38.692915,-121.367497,248509.825129,-102509.825129
197,7458 WINKLEY WAY,SACRAMENTO,95822,CA,3,1,1320,Residential,Tue May 20 00:00:00 EDT 2008,148500,38.487444,-121.491366,184191.289893,-35691.2898927
198,8354 SUNRISE WOODS WAY,SACRAMENTO,95828,CA,3,2,1117,Residential,Tue May 20 00:00:00 EDT 2008,149000,38.473288,-121.3963,248509.825129,-99509.8251294
199,8116 COTTONMILL CIR,SACRAMENTO,95828,CA,3,2,1364,Residential,Tue May 20 00:00:00 EDT 2008,150000,38.482876,-121.405912,248509.825129,-98509.8251294
200,4660 CEDARWOOD WAY,SACRAMENTO,95823,CA,4,2,1310,Residential,Tue May 20 00:00:00 EDT 2008,150000,38.484834,-121.449316,248509.825129,-98509.8251294
201,9254 HARROGATE WAY,ELK GROVE,95758,CA,2,2,1006,Residential,Tue May 20 00:00:00 EDT 2008,152000,38.420138,-121.412179,248509.825129,-96509.8251294
202,6716 TAREYTON WAY,CITRUS HEIGHTS,95621,CA,3,2,1104,Residential,Tue May 20 00:00:00 EDT 2008,156000,38.693724,-121.307169,248509.825129,-92509.8251294
203,2028 ROBERT WAY,SACRAMENTO,95825,CA,2,1,810,Residential,Tue May 20 00:00:00 EDT 2008,156000,38.609982,-121.419263,184191.289893,-28191.2898927
204,9346 AIZENBERG CIR,ELK GROVE,95624,CA,2,2,1123,Residential,Tue May 20 00:00:00 EDT 2008,156000,38.41875,-121.370019,248509.825129,-92509.8251294
205,4524 LOCH HAVEN WAY,SACRAMENTO,95842,CA,2,1,904,Residential,Tue May 20 00:00:00 EDT 2008,157788,38.67273,-121.359645,184191.289893,-26403.2898927
206,7140 BLUE SPRINGS WAY,CITRUS HEIGHTS,95621,CA,3,2,1156,Residential,Tue May 20 00:00:00 EDT 2008,161653,38.720653,-121.302241,248509.825129,-86856.8251294
207,4631 11TH AVE,SACRAMENTO,95820,CA,2,1,1321,Residential,Tue May 20 00:00:00 EDT 2008,161829,38.541965,-121.452132,184191.289893,-22362.2898927
208,3228 BAGGAN CT,ANTELOPE,95843,CA,3,2,1392,Residential,Tue May 20 00:00:00 EDT 2008,165000,38.715346,-121.388163,248509.825129,-83509.8251294
209,8515 DARTFORD DR,SACRAMENTO,95823,CA,3,2,1439,Residential,Tue May 20 00:00:00 EDT 2008,168000,38.448288,-121.420719,248509.825129,-80509.8251294
210,4500 TIPPWOOD WAY,SACRAMENTO,95842,CA,3,2,1159,Residential,Tue May 20 00:00:00 EDT 2008,169000,38.69951,-121.359989,248509.825129,-79509.8251294
211,2460 EL ROCCO WAY,RANCHO CORDOVA,95670,CA,3,2,1671,Residential,Tue May 20 00:00:00 EDT 2008,175000,38.591477,-121.31534,248509.825129,-73509.8251294
212,8244 SUNBIRD WAY,SACRAMENTO,95823,CA,3,2,1740,Residential,Tue May 20 00:00:00 EDT 2008,176250,38.457654,-121.431381,248509.825129,-72259.8251294
213,5841 VALLEY VALE WAY,SACRAMENTO,95823,CA,3,2,1265,Residential,Tue May 20 00:00:00 EDT 2008,179000,38.461283,-121.434322,248509.825129,-69509.8251294
214,7863 CRESTLEIGH CT,ANTELOPE,95843,CA,2,2,1007,Residential,Tue May 20 00:00:00 EDT 2008,180000,38.710889,-121.358876,248509.825129,-68509.8251294
215,7129 SPRINGMONT DR,ELK GROVE,95758,CA,3,2,1716,Residential,Tue May 20 00:00:00 EDT 2008,180400,38.417649,-121.420294,248509.825129,-68109.8251294
216,8284 RED FOX WAY,ELK GROVE,95758,CA,4,2,1685,Residential,Tue May 20 00:00:00 EDT 2008,182000,38.417182,-121.397231,248509.825129,-66509.8251294
217,2219 EL CANTO CIR,RANCHO CORDOVA,95670,CA,4,2,1829,Residential,Tue May 20 00:00:00 EDT 2008,184500,38.592383,-121.318669,248509.825129,-64009.8251294
218,8907 GEMWOOD WAY,ELK GROVE,95758,CA,3,2,1555,Residential,Tue May 20 00:00:00 EDT 2008,185000,38.435471,-121.441173,248509.825129,-63509.8251294
219,5925 MALEVILLE AVE,CARMICHAEL,95608,CA,4,2,1120,Residential,Tue May 20 00:00:00 EDT 2008,189000,38.666564,-121.325717,248509.825129,-59509.8251294
220,7031 CANEVALLEY CIR,CITRUS HEIGHTS,95621,CA,3,2,1137,Residential,Tue May 20 00:00:00 EDT 2008,194000,38.718693,-121.303619,248509.825129,-54509.8251294
221,3949 WILDROSE WAY,SACRAMENTO,95826,CA,3,1,1174,Residential,Tue May 20 00:00:00 EDT 2008,195000,38.543697,-121.366683,184191.289893,10808.7101073
222,4437 MITCHUM CT,ANTELOPE,95843,CA,3,2,1393,Residential,Tue May 20 00:00:00 EDT 2008,200000,38.704407,-121.36113,248509.825129,-48509.8251294
223,2778 KAWEAH CT,CAMERON PARK,95682,CA,3,1,0,Residential,Tue May 20 00:00:00 EDT 2008,201000,38.694052,-120.995589,184191.289893,16808.7101073
224,1636 ALLENWOOD CIR,LINCOLN,95648,CA,4,2,0,Residential,Tue May 20 00:00:00 EDT 2008,202500,38.879192,-121.309477,248509.825129,-46009.8251294
225,8151 QUAIL RIDGE CT,SACRAMENTO,95828,CA,3,2,1289,Residential,Tue May 20 00:00:00 EDT 2008,205000,38.461296,-121.390858,248509.825129,-43509.8251294
226,4899 WIND CREEK DR,SACRAMENTO,95838,CA,4,2,1799,Residential,Tue May 20 00:00:00 EDT 2008,205000,38.655887,-121.446119,248509.825129,-43509.8251294
227,2370 BIG CANYON CREEK RD,PLACERVILLE,95667,CA,3,2,0,Residential,Tue May 20 00:00:00 EDT 2008,205000,38.74458,-120.794254,248509.825129,-43509.8251294
228,6049 HAMBURG WAY,SACRAMENTO,95823,CA,4,3,1953,Residential,Tue May 20 00:00:00 EDT 2008,205000,38.443253,-121.431992,312828.360366,-107828.360366
229,4232 71ST ST,SACRAMENTO,95820,CA,2,1,723,Residential,Tue May 20 00:00:00 EDT 2008,207000,38.536741,-121.42115,184191.289893,22808.7101073
230,3361 BOW MAR CT,CAMERON PARK,95682,CA,2,2,0,Residential,Tue May 20 00:00:00 EDT 2008,210000,38.69437,-120.996602,248509.825129,-38509.8251294
231,1889 COLD SPRINGS RD,PLACERVILLE,95667,CA,2,1,948,Residential,Tue May 20 00:00:00 EDT 2008,211500,38.739774,-120.860243,184191.289893,27308.7101073
232,5805 HIMALAYA WAY,CITRUS HEIGHTS,95621,CA,4,2,1578,Residential,Tue May 20 00:00:00 EDT 2008,215000,38.696489,-121.328555,248509.825129,-33509.8251294
233,7944 SYLVAN OAK WAY,CITRUS HEIGHTS,95610,CA,3,2,1317,Residential,Tue May 20 00:00:00 EDT 2008,215000,38.710388,-121.261096,248509.825129,-33509.8251294
234,3139 SPOONWOOD WAY Unit 1,SACRAMENTO,95833,CA,0,0,0,Residential,Tue May 20 00:00:00 EDT 2008,215500,38.626582,-121.52151,119872.754656,95627.245344
235,6217 LEOLA WAY,SACRAMENTO,95824,CA,3,1,1360,Residential,Tue May 20 00:00:00 EDT 2008,222381,38.513066,-121.451909,184191.289893,38189.7101073
236,2340 HURLEY WAY,SACRAMENTO,95825,CA,0,0,0,Condo,Tue May 20 00:00:00 EDT 2008,225000,38.588816,-121.408549,119872.754656,105127.245344
237,3035 BRUNNET LN,SACRAMENTO,95833,CA,3,2,1522,Residential,Tue May 20 00:00:00 EDT 2008,225000,38.624762,-121.522775,248509.825129,-23509.8251294
238,3025 EL PRADO WAY,SACRAMENTO,95825,CA,4,2,1751,Residential,Tue May 20 00:00:00 EDT 2008,225000,38.606603,-121.394147,248509.825129,-23509.8251294
239,9387 GRANITE FALLS CT,ELK GROVE,95624,CA,3,2,1465,Residential,Tue May 20 00:00:00 EDT 2008,225000,38.419214,-121.348533,248509.825129,-23509.8251294
240,9257 CALDERA WAY,SACRAMENTO,95826,CA,4,2,1605,Residential,Tue May 20 00:00:00 EDT 2008,228000,38.55821,-121.355022,248509.825129,-20509.8251294
241,441 ARLINGDALE CIR,RIO LINDA,95673,CA,4,2,1475,Residential,Tue May 20 00:00:00 EDT 2008,229665,38.702893,-121.454949,248509.825129,-18844.8251294
242,2284 LOS ROBLES RD,MEADOW VISTA,95722,CA,3,1,1216,Residential,Tue May 20 00:00:00 EDT 2008,230000,39.008159,-121.03623,184191.289893,45808.7101073
243,8164 CHENIN BLANC LN,FAIR OAKS,95628,CA,2,2,1315,Residential,Tue May 20 00:00:00 EDT 2008,230000,38.665644,-121.259969,248509.825129,-18509.8251294
244,4620 CHAMBERLIN CIR,ELK GROVE,95757,CA,3,2,1567,Residential,Tue May 20 00:00:00 EDT 2008,230000,38.390557,-121.449805,248509.825129,-18509.8251294
245,5340 BIRK WAY,SACRAMENTO,95835,CA,3,2,1776,Residential,Tue May 20 00:00:00 EDT 2008,234000,38.672495,-121.515251,248509.825129,-14509.8251294
246,51 ANJOU CIR,SACRAMENTO,95835,CA,3,2,2187,Residential,Tue May 20 00:00:00 EDT 2008,235000,38.661658,-121.540633,248509.825129,-13509.8251294
247,2125 22ND AVE,SACRAMENTO,95822,CA,3,1,1291,Residential,Tue May 20 00:00:00 EDT 2008,236250,38.534596,-121.493121,184191.289893,52058.7101073
248,611 BLOSSOM ROCK LN,FOLSOM,95630,CA,0,0,0,Condo,Tue May 20 00:00:00 EDT 2008,240000,38.6457,-121.1197,119872.754656,120127.245344
249,8830 ADUR RD,ELK GROVE,95624,CA,0,0,0,Residential,Tue May 20 00:00:00 EDT 2008,242000,38.43742,-121.372876,119872.754656,122127.245344
250,7344 BUTTERBALL WAY,SACRAMENTO,95842,CA,3,2,1503,Residential,Tue May 20 00:00:00 EDT 2008,245000,38.699489,-121.361828,248509.825129,-3509.8251294
251,8219 GWINHURST CIR,SACRAMENTO,95828,CA,4,3,2491,Residential,Tue May 20 00:00:00 EDT 2008,245000,38.459711,-121.384283,312828.360366,-67828.3603661
252,3240 S ST,SACRAMENTO,95816,CA,2,1,1269,Residential,Tue May 20 00:00:00 EDT 2008,245000,38.562296,-121.467489,184191.289893,60808.7101073
253,221 PICASSO CIR,SACRAMENTO,95835,CA,0,0,0,Residential,Tue May 20 00:00:00 EDT 2008,250000,38.676658,-121.528128,119872.754656,130127.245344
254,5706 GREENACRES WAY,ORANGEVALE,95662,CA,3,2,1176,Residential,Tue May 20 00:00:00 EDT 2008,250000,38.669882,-121.213533,248509.825129,1490.1748706
255,6900 LONICERA DR,ORANGEVALE,95662,CA,4,2,1456,Residential,Tue May 20 00:00:00 EDT 2008,250000,38.692199,-121.250975,248509.825129,1490.1748706
256,419 DAWNRIDGE RD,ROSEVILLE,95678,CA,3,2,1498,Residential,Tue May 20 00:00:00 EDT 2008,250000,38.725283,-121.297953,248509.825129,1490.1748706
257,5312 MARBURY WAY,ANTELOPE,95843,CA,3,2,1574,Residential,Tue May 20 00:00:00 EDT 2008,255000,38.710221,-121.341651,248509.825129,6490.1748706
258,6344 BONHAM CIR,CITRUS HEIGHTS,95610,CA,5,4,2085,Multi-Family,Tue May 20 00:00:00 EDT 2008,256054,38.682358,-121.272876,377146.895603,-121092.895603
259,8207 YORKTON WAY,SACRAMENTO,95829,CA,3,2,2170,Residential,Tue May 20 00:00:00 EDT 2008,257729,38.45967,-121.360461,248509.825129,9219.1748706
260,7922 MANSELL WAY,ELK GROVE,95758,CA,4,2,1595,Residential,Tue May 20 00:00:00 EDT 2008,260000,38.409634,-121.410787,248509.825129,11490.1748706
261,5712 MELBURY CIR,ANTELOPE,95843,CA,3,2,1567,Residential,Tue May 20 00:00:00 EDT 2008,261000,38.705849,-121.334701,248509.825129,12490.1748706
262,632 NEWBRIDGE LN,LINCOLN,95648,CA,4,2,0,Residential,Tue May 20 00:00:00 EDT 2008,261800,38.879084,-121.298586,248509.825129,13290.1748706
263,1570 GLIDDEN AVE,SACRAMENTO,95822,CA,4,2,1253,Residential,Tue May 20 00:00:00 EDT 2008,264469,38.482704,-121.500433,248509.825129,15959.1748706
264,8108 FILIFERA WAY,ANTELOPE,95843,CA,4,3,1768,Residential,Tue May 20 00:00:00 EDT 2008,265000,38.717042,-121.35468,312828.360366,-47828.3603661
265,230 BANKSIDE WAY,SACRAMENTO,95835,CA,0,0,0,Residential,Tue May 20 00:00:00 EDT 2008,270000,38.676937,-121.529244,119872.754656,150127.245344
266,5342 CALABRIA WAY,SACRAMENTO,95835,CA,4,3,2030,Residential,Tue May 20 00:00:00 EDT 2008,270000,38.671807,-121.498274,312828.360366,-42828.3603661
267,47 NAPONEE CT,SACRAMENTO,95835,CA,3,2,1531,Residential,Tue May 20 00:00:00 EDT 2008,270000,38.665704,-121.529096,248509.825129,21490.1748706
268,4236 ADRIATIC SEA WAY,SACRAMENTO,95834,CA,0,0,0,Residential,Tue May 20 00:00:00 EDT 2008,270000,38.647961,-121.543162,119872.754656,150127.245344
269,8864 REMBRANT CT,ELK GROVE,95624,CA,4,3,1653,Residential,Tue May 20 00:00:00 EDT 2008,275000,38.435288,-121.375703,312828.360366,-37828.3603661
270,9455 SEA CLIFF WAY,ELK GROVE,95758,CA,4,2,2056,Residential,Tue May 20 00:00:00 EDT 2008,275000,38.411522,-121.481406,248509.825129,26490.1748706
271,9720 LITTLE HARBOR WAY,ELK GROVE,95624,CA,4,3,2494,Residential,Tue May 20 00:00:00 EDT 2008,280000,38.404934,-121.352405,312828.360366,-32828.3603661
272,8806 PHOENIX AVE,FAIR OAKS,95628,CA,3,2,1450,Residential,Tue May 20 00:00:00 EDT 2008,286013,38.660322,-121.230101,248509.825129,37503.1748706
273,3578 LOGGERHEAD WAY,SACRAMENTO,95834,CA,4,2,2169,Residential,Tue May 20 00:00:00 EDT 2008,292000,38.633028,-121.526755,248509.825129,43490.1748706
274,1416 LOCKHART WAY,ROSEVILLE,95747,CA,3,2,1440,Residential,Tue May 20 00:00:00 EDT 2008,292000,38.752399,-121.330328,248509.825129,43490.1748706
275,5413 BUENA VENTURA WAY,FAIR OAKS,95628,CA,3,2,1527,Residential,Tue May 20 00:00:00 EDT 2008,293993,38.664552,-121.255937,248509.825129,45483.1748706
276,37 WHITE BIRCH CT,ROSEVILLE,95678,CA,3,2,1401,Residential,Tue May 20 00:00:00 EDT 2008,294000,38.776327,-121.284514,248509.825129,45490.1748706
277,405 MARLIN SPIKE WAY,SACRAMENTO,95838,CA,3,2,1411,Residential,Tue May 20 00:00:00 EDT 2008,296769,38.65783,-121.456842,248509.825129,48259.1748706
278,1102 CHESLEY LN,LINCOLN,95648,CA,4,4,0,Residential,Tue May 20 00:00:00 EDT 2008,297500,38.864864,-121.313988,377146.895603,-79646.8956028
279,11281 STANFORD COURT LN Unit 604,GOLD RIVER,95670,CA,0,0,0,Condo,Tue May 20 00:00:00 EDT 2008,300000,38.625289,-121.260286,119872.754656,180127.245344
280,7320 6TH ST,RIO LINDA,95673,CA,3,1,1284,Residential,Tue May 20 00:00:00 EDT 2008,300000,38.700553,-121.452223,184191.289893,115808.710107
281,993 MANTON CT,GALT,95632,CA,4,3,2307,Residential,Tue May 20 00:00:00 EDT 2008,300000,38.272942,-121.289148,312828.360366,-12828.3603661
282,4487 PANORAMA DR,PLACERVILLE,95667,CA,3,2,1329,Residential,Tue May 20 00:00:00 EDT 2008,300000,38.694559,-120.848157,248509.825129,51490.1748706
283,5651 OVERLEAF WAY,SACRAMENTO,95835,CA,4,2,1910,Residential,Tue May 20 00:00:00 EDT 2008,300500,38.677454,-121.494791,248509.825129,51990.1748706
284,2015 PROMONTORY POINT LN,GOLD RIVER,95670,CA,3,2,1981,Residential,Tue May 20 00:00:00 EDT 2008,305000,38.628732,-121.261149,248509.825129,56490.1748706
285,3224 PARKHAM DR,ROSEVILLE,95747,CA,0,0,0,Residential,Tue May 20 00:00:00 EDT 2008,306500,38.772771,-121.364877,119872.754656,186627.245344
286,15 VANESSA PL,SACRAMENTO,95835,CA,0,0,0,Residential,Tue May 20 00:00:00 EDT 2008,312500,38.668692,-121.54549,119872.754656,192627.245344
287,1312 RENISON LN,LINCOLN,95648,CA,5,3,0,Residential,Tue May 20 00:00:00 EDT 2008,315000,38.866409,-121.308485,312828.360366,2171.6396339
288,8 RIVER RAFT CT,SACRAMENTO,95823,CA,4,2,2205,Residential,Tue May 20 00:00:00 EDT 2008,319789,38.447353,-121.434969,248509.825129,71279.1748706
289,2251 LAMPLIGHT LN,LINCOLN,95648,CA,2,2,1449,Residential,Tue May 20 00:00:00 EDT 2008,330000,38.849924,-121.275729,248509.825129,81490.1748706
290,106 FARHAM DR,FOLSOM,95630,CA,3,2,1258,Residential,Tue May 20 00:00:00 EDT 2008,330000,38.667834,-121.168578,248509.825129,81490.1748706
291,5405 NECTAR CIR,ELK GROVE,95757,CA,3,2,2575,Residential,Tue May 20 00:00:00 EDT 2008,331000,38.387014,-121.440967,248509.825129,82490.1748706
292,5411 10TH AVE,SACRAMENTO,95820,CA,2,1,539,Residential,Tue May 20 00:00:00 EDT 2008,334000,38.542727,-121.442449,184191.289893,149808.710107
293,3512 RAINSONG CIR,RANCHO CORDOVA,95670,CA,4,3,2208,Residential,Tue May 20 00:00:00 EDT 2008,336000,38.573488,-121.282809,312828.360366,23171.6396339
294,1106 55TH ST,SACRAMENTO,95819,CA,3,1,1108,Residential,Tue May 20 00:00:00 EDT 2008,339000,38.563805,-121.436395,184191.289893,154808.710107
295,411 ILLSLEY WAY,FOLSOM,95630,CA,4,2,1595,Residential,Tue May 20 00:00:00 EDT 2008,339000,38.652002,-121.129504,248509.825129,90490.1748706
296,796 BUTTERCUP CIR,GALT,95632,CA,4,2,2159,Residential,Tue May 20 00:00:00 EDT 2008,345000,38.279581,-121.300828,248509.825129,96490.1748706
297,1230 SANDRA CIR,PLACERVILLE,95667,CA,4,3,2295,Residential,Tue May 20 00:00:00 EDT 2008,350000,38.738141,-120.784145,312828.360366,37171.6396339
298,318 ANACAPA DR,ROSEVILLE,95678,CA,3,2,1838,Residential,Tue May 20 00:00:00 EDT 2008,356000,38.782094,-121.297133,248509.825129,107490.174871
299,3975 SHINING STAR DR,SACRAMENTO,95823,CA,4,2,1900,Residential,Tue May 20 00:00:00 EDT 2008,361745,38.487409,-121.461413,248509.825129,113235.174871
300,1620 BASLER ST,SACRAMENTO,95811,CA,4,2,1718,Residential,Tue May 20 00:00:00 EDT 2008,361948,38.591822,-121.478644,248509.825129,113438.174871
301,9688 NATURE TRAIL WAY,ELK GROVE,95757,CA,5,3,3389,Residential,Tue May 20 00:00:00 EDT 2008,370000,38.405224,-121.479275,312828.360366,57171.6396339
302,5924 TANUS CIR,ROCKLIN,95677,CA,4,2,0,Residential,Tue May 20 00:00:00 EDT 2008,380000,38.778691,-121.204292,248509.825129,131490.174871
303,9629 CEDAR OAK WAY,ELK GROVE,95757,CA,5,4,3260,Residential,Tue May 20 00:00:00 EDT 2008,385000,38.405527,-121.431746,377146.895603,7853.1043972
304,3429 FERNBROOK CT,CAMERON PARK,95682,CA,3,2,2016,Residential,Tue May 20 00:00:00 EDT 2008,399000,38.664225,-121.007173,248509.825129,150490.174871
305,2121 HANNAH WAY,ROCKLIN,95765,CA,4,2,2607,Residential,Tue May 20 00:00:00 EDT 2008,402000,38.805749,-121.280931,248509.825129,153490.174871
306,10104 ANNIE ST,ELK GROVE,95757,CA,4,3,2724,Residential,Tue May 20 00:00:00 EDT 2008,406026,38.390465,-121.443479,312828.360366,93197.6396339
307,1092 MAUGHAM CT,GALT,95632,CA,5,4,3746,Residential,Tue May 20 00:00:00 EDT 2008,420000,38.271646,-121.286848,377146.895603,42853.1043972
308,5404 ALMOND FALLS WAY,RANCHO CORDOVA,95742,CA,0,0,0,Residential,Tue May 20 00:00:00 EDT 2008,425000,38.527502,-121.233492,119872.754656,305127.245344
309,6306 CONEJO,RANCHO MURIETA,95683,CA,4,2,3192,Residential,Tue May 20 00:00:00 EDT 2008,425000,38.512602,-121.087233,248509.825129,176490.174871
310,14 CASA VATONI PL,SACRAMENTO,95834,CA,0,0,0,Residential,Tue May 20 00:00:00 EDT 2008,433500,38.650221,-121.551704,119872.754656,313627.245344
311,1456 EAGLESFIELD LN,LINCOLN,95648,CA,4,3,0,Residential,Tue May 20 00:00:00 EDT 2008,436746,38.857635,-121.311375,312828.360366,123917.639634
312,4100 BOTHWELL CIR,EL DORADO HILLS,95762,CA,5,3,0,Residential,Tue May 20 00:00:00 EDT 2008,438700,38.679136,-121.034329,312828.360366,125871.639634
313,427 21ST ST,SACRAMENTO,95811,CA,2,1,1247,Residential,Tue May 20 00:00:00 EDT 2008,445000,38.582604,-121.47576,184191.289893,260808.710107
314,1044 GALSTON DR,FOLSOM,95630,CA,4,2,2581,Residential,Tue May 20 00:00:00 EDT 2008,450000,38.676306,-121.09954,248509.825129,201490.174871
315,4440 SYCAMORE AVE,SACRAMENTO,95841,CA,3,1,2068,Residential,Tue May 20 00:00:00 EDT 2008,460000,38.646374,-121.353658,184191.289893,275808.710107
316,1032 SOUZA DR,EL DORADO HILLS,95762,CA,3,2,0,Residential,Tue May 20 00:00:00 EDT 2008,460000,38.668239,-121.064437,248509.825129,211490.174871
317,9760 LAZULITE CT,ELK GROVE,95624,CA,4,3,3992,Residential,Tue May 20 00:00:00 EDT 2008,460000,38.403609,-121.335541,312828.360366,147171.639634
318,241 LANFRANCO CIR,SACRAMENTO,95835,CA,4,4,3397,Residential,Tue May 20 00:00:00 EDT 2008,465000,38.665696,-121.549437,377146.895603,87853.1043972
319,5559 NORTHBOROUGH DR,SACRAMENTO,95835,CA,5,3,3881,Residential,Tue May 20 00:00:00 EDT 2008,471750,38.677225,-121.519687,312828.360366,158921.639634
320,2125 BIG SKY DR,ROCKLIN,95765,CA,5,3,0,Residential,Tue May 20 00:00:00 EDT 2008,480000,38.801637,-121.278798,312828.360366,167171.639634
321,2109 HAMLET PL,CARMICHAEL,95608,CA,2,2,1598,Residential,Tue May 20 00:00:00 EDT 2008,484000,38.602754,-121.329326,248509.825129,235490.174871
322,9970 STATE HIGHWAY 193,PLACERVILLE,95667,CA,4,3,1929,Residential,Tue May 20 00:00:00 EDT 2008,485000,38.787877,-120.816676,312828.360366,172171.639634
323,2901 PINTAIL WAY,ELK GROVE,95757,CA,4,3,3070,Residential,Tue May 20 00:00:00 EDT 2008,495000,38.398488,-121.473424,312828.360366,182171.639634
324,201 FIRESTONE DR,ROSEVILLE,95678,CA,0,0,0,Residential,Tue May 20 00:00:00 EDT 2008,500500,38.770153,-121.300039,119872.754656,380627.245344
325,1740 HIGH ST,AUBURN,95603,CA,3,3,0,Residential,Tue May 20 00:00:00 EDT 2008,504000,38.891935,-121.08434,312828.360366,191171.639634
326,2733 DANA LOOP,EL DORADO HILLS,95762,CA,0,0,0,Residential,Tue May 20 00:00:00 EDT 2008,541000,38.628459,-121.055078,119872.754656,421127.245344
327,9741 SADDLEBRED CT,WILTON,95693,CA,0,0,0,Residential,Tue May 20 00:00:00 EDT 2008,560000,38.408841,-121.198039,119872.754656,440127.245344
328,7756 TIGERWOODS DR,SACRAMENTO,95829,CA,5,3,3984,Residential,Tue May 20 00:00:00 EDT 2008,572500,38.47643,-121.309243,312828.360366,259671.639634
329,5709 RIVER OAK WAY,CARMICHAEL,95608,CA,4,2,2222,Residential,Tue May 20 00:00:00 EDT 2008,582000,38.602461,-121.330979,248509.825129,333490.174871
330,2981 WRINGER DR,ROSEVILLE,95661,CA,4,3,3838,Residential,Tue May 20 00:00:00 EDT 2008,613401,38.735373,-121.227072,312828.360366,300572.639634
331,8616 ROCKPORTE CT,ROSEVILLE,95747,CA,4,2,0,Residential,Tue May 20 00:00:00 EDT 2008,614000,38.742118,-121.359909,248509.825129,365490.174871
332,4128 HILL ST,FAIR OAKS,95628,CA,5,5,2846,Residential,Tue May 20 00:00:00 EDT 2008,680000,38.64167,-121.262099,441465.430839,238534.569161
333,1409 47TH ST,SACRAMENTO,95819,CA,5,2,2484,Residential,Tue May 20 00:00:00 EDT 2008,699000,38.563244,-121.446876,248509.825129,450490.174871
334,3935 EL MONTE DR,LOOMIS,95650,CA,4,4,1624,Residential,Tue May 20 00:00:00 EDT 2008,839000,38.813337,-121.133348,377146.895603,461853.104397
335,5840 WALERGA RD,SACRAMENTO,95842,CA,2,1,840,Condo,Mon May 19 00:00:00 EDT 2008,40000,38.673678,-121.357471,184191.289893,-144191.289893
336,923 FULTON AVE,SACRAMENTO,95825,CA,1,1,484,Condo,Mon May 19 00:00:00 EDT 2008,48000,38.582279,-121.401482,184191.289893,-136191.289893
337,261 REDONDO AVE,SACRAMENTO,95815,CA,3,1,970,Residential,Mon May 19 00:00:00 EDT 2008,61500,38.620685,-121.460539,184191.289893,-122691.289893
338,4030 BROADWAY,SACRAMENTO,95817,CA,2,1,623,Residential,Mon May 19 00:00:00 EDT 2008,62050,38.546798,-121.460038,184191.289893,-122141.289893
339,3660 22ND AVE,SACRAMENTO,95820,CA,2,1,932,Residential,Mon May 19 00:00:00 EDT 2008,65000,38.532718,-121.46747,184191.289893,-119191.289893
340,3924 HIGH ST,SACRAMENTO,95838,CA,2,1,796,Residential,Mon May 19 00:00:00 EDT 2008,65000,38.638797,-121.435049,184191.289893,-119191.289893
341,4734 14TH AVE,SACRAMENTO,95820,CA,2,1,834,Residential,Mon May 19 00:00:00 EDT 2008,68000,38.539447,-121.450858,184191.289893,-116191.289893
342,4734 14TH AVE,SACRAMENTO,95820,CA,2,1,834,Residential,Mon May 19 00:00:00 EDT 2008,68000,38.539447,-121.450858,184191.289893,-116191.289893
343,5050 RHODE ISLAND DR Unit 4,SACRAMENTO,95841,CA,2,1,924,Condo,Mon May 19 00:00:00 EDT 2008,77000,38.658739,-121.333561,184191.289893,-107191.289893
344,4513 GREENHOLME DR,SACRAMENTO,95842,CA,2,1,795,Condo,Mon May 19 00:00:00 EDT 2008,82732,38.669104,-121.359008,184191.289893,-101459.289893
345,3845 ELM ST,SACRAMENTO,95838,CA,3,1,1250,Residential,Mon May 19 00:00:00 EDT 2008,84000,38.637337,-121.432835,184191.289893,-100191.289893
346,3908 17TH AVE,SACRAMENTO,95820,CA,2,1,984,Residential,Mon May 19 00:00:00 EDT 2008,84675,38.53728,-121.463531,184191.289893,-99516.2898927
347,7109 CHANDLER DR,SACRAMENTO,95828,CA,3,1,1013,Residential,Mon May 19 00:00:00 EDT 2008,85000,38.497237,-121.424187,184191.289893,-99191.2898927
348,7541 SKELTON WAY,SACRAMENTO,95822,CA,3,1,1012,Residential,Mon May 19 00:00:00 EDT 2008,90000,38.484274,-121.488851,184191.289893,-94191.2898927
349,9058 MONTOYA ST,SACRAMENTO,95826,CA,2,1,795,Condo,Mon May 19 00:00:00 EDT 2008,90000,38.559144,-121.368387,184191.289893,-94191.2898927
350,1016 CONGRESS AVE,SACRAMENTO,95838,CA,2,2,918,Residential,Mon May 19 00:00:00 EDT 2008,91000,38.630151,-121.442789,248509.825129,-157509.825129
351,540 MORRISON AVE,SACRAMENTO,95838,CA,3,1,1082,Residential,Mon May 19 00:00:00 EDT 2008,95000,38.637704,-121.453946,184191.289893,-89191.2898927
352,5303 JERRETT WAY,SACRAMENTO,95842,CA,2,1,964,Residential,Mon May 19 00:00:00 EDT 2008,97500,38.663282,-121.359631,184191.289893,-86691.2898927
353,2820 DEL PASO BLVD,SACRAMENTO,95815,CA,4,2,1404,Multi-Family,Mon May 19 00:00:00 EDT 2008,100000,38.617718,-121.440089,248509.825129,-148509.825129
354,3715 TALLYHO DR Unit 78HIGH,SACRAMENTO,95826,CA,1,1,625,Condo,Mon May 19 00:00:00 EDT 2008,100000,38.544627,-121.35796,184191.289893,-84191.2898927
355,6013 ROWAN WAY,CITRUS HEIGHTS,95621,CA,2,1,888,Residential,Mon May 19 00:00:00 EDT 2008,101000,38.675893,-121.2963,184191.289893,-83191.2898927
356,2987 PONDEROSA LN,SACRAMENTO,95815,CA,4,2,1120,Residential,Mon May 19 00:00:00 EDT 2008,102750,38.622243,-121.457863,248509.825129,-145759.825129
357,3732 LANKERSHIM WAY,NORTH HIGHLANDS,95660,CA,3,1,1331,Residential,Mon May 19 00:00:00 EDT 2008,112500,38.68972,-121.378399,184191.289893,-71691.2898927
358,2216 DUNLAP DR,SACRAMENTO,95821,CA,3,1,1014,Residential,Mon May 19 00:00:00 EDT 2008,113000,38.623738,-121.41305,184191.289893,-71191.2898927
359,3503 21ST AVE,SACRAMENTO,95820,CA,4,2,1448,Residential,Mon May 19 00:00:00 EDT 2008,114000,38.53361,-121.469308,248509.825129,-134509.825129
360,523 EXCHANGE ST,SACRAMENTO,95838,CA,3,1,966,Residential,Mon May 19 00:00:00 EDT 2008,114000,38.659414,-121.45408,184191.289893,-70191.2898927
361,8101 PORT ROYALE WAY,SACRAMENTO,95823,CA,2,1,779,Residential,Mon May 19 00:00:00 EDT 2008,114750,38.463929,-121.438667,184191.289893,-69441.2898927
362,8020 WALERGA RD,ANTELOPE,95843,CA,2,2,836,Condo,Mon May 19 00:00:00 EDT 2008,115000,38.71607,-121.364468,248509.825129,-133509.825129
363,167 VALLEY OAK DR,ROSEVILLE,95678,CA,2,2,1100,Condo,Mon May 19 00:00:00 EDT 2008,115000,38.732429,-121.288069,248509.825129,-133509.825129
364,7876 BURLINGTON WAY,SACRAMENTO,95832,CA,3,1,1174,Residential,Mon May 19 00:00:00 EDT 2008,116100,38.470093,-121.468347,184191.289893,-68091.2898927
365,3726 JONKO AVE,NORTH HIGHLANDS,95660,CA,3,2,1207,Residential,Mon May 19 00:00:00 EDT 2008,119250,38.656131,-121.377265,248509.825129,-129259.825129
366,7342 GIGI PL,SACRAMENTO,95828,CA,4,4,1995,Multi-Family,Mon May 19 00:00:00 EDT 2008,120000,38.490704,-121.410176,377146.895603,-257146.895603
367,2610 PHYLLIS AVE,SACRAMENTO,95820,CA,2,1,804,Residential,Mon May 19 00:00:00 EDT 2008,120000,38.53105,-121.479574,184191.289893,-64191.2898927
368,4200 COMMERCE WAY Unit 711,SACRAMENTO,95834,CA,2,2,958,Condo,Mon May 19 00:00:00 EDT 2008,120000,38.647523,-121.523217,248509.825129,-128509.825129
369,4621 COUNTRY SCENE WAY,SACRAMENTO,95823,CA,3,2,1366,Residential,Mon May 19 00:00:00 EDT 2008,120108,38.470187,-121.448149,248509.825129,-128401.825129
370,5380 VILLAGE WOOD DR,SACRAMENTO,95823,CA,2,2,901,Residential,Mon May 19 00:00:00 EDT 2008,121500,38.454949,-121.440578,248509.825129,-127009.825129
371,2621 EVERGREEN ST,SACRAMENTO,95815,CA,3,1,696,Residential,Mon May 19 00:00:00 EDT 2008,121725,38.613103,-121.444085,184191.289893,-62466.2898927
372,201 CARLO CT,GALT,95632,CA,3,2,1080,Residential,Mon May 19 00:00:00 EDT 2008,122000,38.24227,-121.31032,248509.825129,-126509.825129
373,6743 21ST ST,SACRAMENTO,95822,CA,3,2,1104,Residential,Mon May 19 00:00:00 EDT 2008,123000,38.50372,-121.490657,248509.825129,-125509.825129
374,3128 VIA GRANDE,SACRAMENTO,95825,CA,2,1,972,Residential,Mon May 19 00:00:00 EDT 2008,125000,38.598321,-121.39161,184191.289893,-59191.2898927
375,2847 BELGRADE WAY,SACRAMENTO,95833,CA,4,2,1390,Residential,Mon May 19 00:00:00 EDT 2008,125573,38.617173,-121.482541,248509.825129,-122936.825129
376,7741 MILLDALE CIR,ELVERTA,95626,CA,4,2,1354,Residential,Mon May 19 00:00:00 EDT 2008,126714,38.705834,-121.43919,248509.825129,-121795.825129
377,9013 CASALS ST,SACRAMENTO,95826,CA,2,1,795,Condo,Mon May 19 00:00:00 EDT 2008,126960,38.557045,-121.37167,184191.289893,-57231.2898927
378,227 MAHAN CT Unit 1,ROSEVILLE,95678,CA,2,1,780,Condo,Mon May 19 00:00:00 EDT 2008,127000,38.749723,-121.27008,184191.289893,-57191.2898927
379,7349 FLETCHER FARM DR,SACRAMENTO,95828,CA,4,2,1587,Residential,Mon May 19 00:00:00 EDT 2008,127500,38.49069,-121.382619,248509.825129,-121009.825129
380,7226 LARCHMONT DR,NORTH HIGHLANDS,95660,CA,3,2,1209,Residential,Mon May 19 00:00:00 EDT 2008,130000,38.699269,-121.376334,248509.825129,-118509.825129
381,4114 35TH AVE,SACRAMENTO,95824,CA,2,1,1139,Residential,Mon May 19 00:00:00 EDT 2008,133105,38.520941,-121.459355,184191.289893,-51086.2898927
382,617 M ST,RIO LINDA,95673,CA,2,2,1690,Residential,Mon May 19 00:00:00 EDT 2008,136500,38.691104,-121.451832,248509.825129,-112009.825129
383,7032 FAIR OAKS BLVD,CARMICHAEL,95608,CA,3,2,1245,Condo,Mon May 19 00:00:00 EDT 2008,139500,38.628563,-121.328297,248509.825129,-109009.825129
384,2421 SANTINA WAY,ELVERTA,95626,CA,3,2,1416,Residential,Mon May 19 00:00:00 EDT 2008,140000,38.71865,-121.407763,248509.825129,-108509.825129
385,2368 CRAIG AVE,SACRAMENTO,95832,CA,3,2,1300,Residential,Mon May 19 00:00:00 EDT 2008,140800,38.47807,-121.48114,248509.825129,-107709.825129
386,2123 AMANDA WAY,SACRAMENTO,95822,CA,3,2,1120,Residential,Mon May 19 00:00:00 EDT 2008,145000,38.484896,-121.486948,248509.825129,-103509.825129
387,7620 DARLA WAY,SACRAMENTO,95828,CA,4,2,1590,Residential,Mon May 19 00:00:00 EDT 2008,147000,38.478502,-121.403517,248509.825129,-101509.825129
388,8344 FIELDPOPPY CIR,SACRAMENTO,95828,CA,3,2,1407,Residential,Mon May 19 00:00:00 EDT 2008,149600,38.479083,-121.400702,248509.825129,-98909.8251294
389,3624 20TH AVE,SACRAMENTO,95820,CA,5,2,1516,Residential,Mon May 19 00:00:00 EDT 2008,150000,38.534508,-121.467907,248509.825129,-98509.8251294
390,10001 WOODCREEK OAKS BLVD Unit 1415,ROSEVILLE,95747,CA,2,2,0,Condo,Mon May 19 00:00:00 EDT 2008,150000,38.795529,-121.328819,248509.825129,-98509.8251294
391,2848 PROVO WAY,SACRAMENTO,95822,CA,3,2,1646,Residential,Mon May 19 00:00:00 EDT 2008,150000,38.489759,-121.474754,248509.825129,-98509.8251294
392,6045 EHRHARDT AVE,SACRAMENTO,95823,CA,3,2,1676,Residential,Mon May 19 00:00:00 EDT 2008,155000,38.457157,-121.433065,248509.825129,-93509.8251294
393,1223 LAMBERTON CIR,SACRAMENTO,95838,CA,3,2,1370,Residential,Mon May 19 00:00:00 EDT 2008,155435,38.646677,-121.437573,248509.825129,-93074.8251294
394,1223 LAMBERTON CIR,SACRAMENTO,95838,CA,3,2,1370,Residential,Mon May 19 00:00:00 EDT 2008,155500,38.646677,-121.437573,248509.825129,-93009.8251294
395,6000 BIRCHGLADE WAY,CITRUS HEIGHTS,95621,CA,4,2,1351,Residential,Mon May 19 00:00:00 EDT 2008,158000,38.70166,-121.323249,248509.825129,-90509.8251294
396,7204 THOMAS DR,NORTH HIGHLANDS,95660,CA,3,2,1152,Residential,Mon May 19 00:00:00 EDT 2008,158000,38.697898,-121.377687,248509.825129,-90509.8251294
397,8363 LANGTREE WAY,SACRAMENTO,95823,CA,3,2,1452,Residential,Mon May 19 00:00:00 EDT 2008,160000,38.45356,-121.435959,248509.825129,-88509.8251294
398,1675 VERNON ST Unit 8,ROSEVILLE,95678,CA,2,1,990,Residential,Mon May 19 00:00:00 EDT 2008,160000,38.734136,-121.299639,184191.289893,-24191.2898927
399,6632 IBEX WOODS CT,CITRUS HEIGHTS,95621,CA,2,2,1162,Residential,Mon May 19 00:00:00 EDT 2008,164000,38.720868,-121.309855,248509.825129,-84509.8251294
400,117 EVCAR WAY,RIO LINDA,95673,CA,3,2,1182,Residential,Mon May 19 00:00:00 EDT 2008,164000,38.687659,-121.4633,248509.825129,-84509.8251294
401,6485 LAGUNA MIRAGE LN,ELK GROVE,95758,CA,2,2,1112,Residential,Mon May 19 00:00:00 EDT 2008,165000,38.42465,-121.430137,248509.825129,-83509.8251294
402,746 MOOSE CREEK WAY,GALT,95632,CA,3,2,1100,Residential,Mon May 19 00:00:00 EDT 2008,167000,38.283085,-121.302071,248509.825129,-81509.8251294
403,8306 CURLEW CT,CITRUS HEIGHTS,95621,CA,4,2,1280,Residential,Mon May 19 00:00:00 EDT 2008,167293,38.715781,-121.298519,248509.825129,-81216.8251294
404,8306 CURLEW CT,CITRUS HEIGHTS,95621,CA,4,2,1280,Residential,Mon May 19 00:00:00 EDT 2008,167293,38.715781,-121.298519,248509.825129,-81216.8251294
405,5217 ARGO WAY,SACRAMENTO,95820,CA,3,1,1039,Residential,Mon May 19 00:00:00 EDT 2008,168000,38.52774,-121.433669,184191.289893,-16191.2898927
406,7108 HEATHER TREE DR,SACRAMENTO,95842,CA,3,2,1159,Residential,Mon May 19 00:00:00 EDT 2008,170000,38.695677,-121.36022,248509.825129,-78509.8251294
407,2956 DAVENPORT WAY,SACRAMENTO,95833,CA,4,2,1917,Residential,Mon May 19 00:00:00 EDT 2008,170000,38.620687,-121.482619,248509.825129,-78509.8251294
408,10062 LINCOLN VILLAGE DR,SACRAMENTO,95827,CA,3,2,1520,Residential,Mon May 19 00:00:00 EDT 2008,170000,38.564,-121.320023,248509.825129,-78509.8251294
409,332 PALIN AVE,GALT,95632,CA,3,2,1204,Residential,Mon May 19 00:00:00 EDT 2008,174000,38.260467,-121.302636,248509.825129,-74509.8251294
410,4649 FREEWAY CIR,SACRAMENTO,95841,CA,3,2,1120,Residential,Mon May 19 00:00:00 EDT 2008,178000,38.658734,-121.357196,248509.825129,-70509.8251294
411,8593 DERLIN WAY,SACRAMENTO,95823,CA,3,2,1436,Residential,Mon May 19 00:00:00 EDT 2008,180000,38.447585,-121.426627,248509.825129,-68509.8251294
412,9273 PREMIER WAY,SACRAMENTO,95826,CA,3,2,1451,Residential,Mon May 19 00:00:00 EDT 2008,180000,38.55992,-121.352539,248509.825129,-68509.8251294
413,8032 DUSENBERG CT,SACRAMENTO,95828,CA,4,2,1638,Residential,Mon May 19 00:00:00 EDT 2008,180000,38.466499,-121.381119,248509.825129,-68509.8251294
414,7110 STELLA LN Unit 15,CARMICHAEL,95608,CA,2,2,1000,Condo,Mon May 19 00:00:00 EDT 2008,182000,38.637396,-121.300055,248509.825129,-66509.8251294
415,1786 PIEDMONT WAY,ROSEVILLE,95661,CA,3,1,1152,Residential,Mon May 19 00:00:00 EDT 2008,188325,38.72748,-121.256537,184191.289893,4133.7101073
416,1347 HIDALGO CIR,ROSEVILLE,95747,CA,3,2,1154,Residential,Mon May 19 00:00:00 EDT 2008,191500,38.747878,-121.311279,248509.825129,-57009.8251294
417,212 CAPPUCINO WAY,SACRAMENTO,95838,CA,3,2,1353,Residential,Mon May 19 00:00:00 EDT 2008,192000,38.657811,-121.465327,248509.825129,-56509.8251294
418,5938 WOODBRIAR WAY,CITRUS HEIGHTS,95621,CA,3,2,1329,Residential,Mon May 19 00:00:00 EDT 2008,192700,38.706152,-121.325399,248509.825129,-55809.8251294
419,3801 WILDROSE WAY,SACRAMENTO,95826,CA,3,1,1356,Residential,Mon May 19 00:00:00 EDT 2008,195000,38.544368,-121.369979,184191.289893,10808.7101073
420,508 SAMUEL WAY,SACRAMENTO,95838,CA,3,2,1505,Residential,Mon May 19 00:00:00 EDT 2008,197654,38.645689,-121.452766,248509.825129,-50855.8251294
421,6128 CARL SANDBURG CIR,SACRAMENTO,95842,CA,3,1,1009,Residential,Mon May 19 00:00:00 EDT 2008,198000,38.681541,-121.355616,184191.289893,13808.7101073
422,1 KENNELFORD CIR,SACRAMENTO,95823,CA,3,2,1144,Residential,Mon May 19 00:00:00 EDT 2008,200345,38.46452,-121.427606,248509.825129,-48164.8251294
423,909 SINGINGWOOD RD,SACRAMENTO,95864,CA,2,1,930,Residential,Mon May 19 00:00:00 EDT 2008,203000,38.581471,-121.38839,184191.289893,18808.7101073
424,6671 FOXWOOD CT,SACRAMENTO,95841,CA,4,2,1766,Residential,Mon May 19 00:00:00 EDT 2008,207000,38.687943,-121.328883,248509.825129,-41509.8251294
425,8165 AYN RAND CT,SACRAMENTO,95828,CA,4,3,1940,Residential,Mon May 19 00:00:00 EDT 2008,208000,38.468639,-121.403265,312828.360366,-104828.360366
426,9474 VILLAGE TREE DR,ELK GROVE,95758,CA,4,2,1776,Residential,Mon May 19 00:00:00 EDT 2008,210000,38.413947,-121.408276,248509.825129,-38509.8251294
427,7213 CALVIN DR,CITRUS HEIGHTS,95621,CA,3,1,1258,Residential,Mon May 19 00:00:00 EDT 2008,212000,38.698154,-121.298375,184191.289893,27808.7101073
428,8167 DERBY PARK CT,SACRAMENTO,95828,CA,4,2,1872,Residential,Mon May 19 00:00:00 EDT 2008,213675,38.460492,-121.373379,248509.825129,-34834.8251294
429,6344 LAGUNA MIRAGE LN,ELK GROVE,95758,CA,2,2,1112,Residential,Mon May 19 00:00:00 EDT 2008,213697,38.423963,-121.428875,248509.825129,-34812.8251294
430,2945 RED HAWK WAY,SACRAMENTO,95833,CA,4,2,1856,Residential,Mon May 19 00:00:00 EDT 2008,215000,38.619675,-121.496903,248509.825129,-33509.8251294
431,3228 I ST,SACRAMENTO,95816,CA,4,3,1939,Residential,Mon May 19 00:00:00 EDT 2008,215000,38.573844,-121.462839,312828.360366,-97828.3603661
432,308 ATKINSON ST,ROSEVILLE,95678,CA,3,1,998,Residential,Mon May 19 00:00:00 EDT 2008,215100,38.746794,-121.29971,184191.289893,30908.7101073
433,624 HOVEY WAY,ROSEVILLE,95678,CA,3,2,1758,Residential,Mon May 19 00:00:00 EDT 2008,217500,38.756149,-121.306479,248509.825129,-31009.8251294
434,110 COPPER LEAF WAY,SACRAMENTO,95838,CA,3,2,2142,Residential,Mon May 19 00:00:00 EDT 2008,218000,38.658466,-121.460661,248509.825129,-30509.8251294
435,7535 ALMA VISTA WAY,SACRAMENTO,95831,CA,2,1,950,Residential,Mon May 19 00:00:00 EDT 2008,220000,38.48403,-121.507641,184191.289893,35808.7101073
436,7423 WILSALL CT,ELK GROVE,95758,CA,4,3,1739,Residential,Mon May 19 00:00:00 EDT 2008,221000,38.417026,-121.416821,312828.360366,-91828.3603661
437,8629 VIA ALTA WAY,ELK GROVE,95624,CA,3,2,1516,Residential,Mon May 19 00:00:00 EDT 2008,222900,38.398245,-121.380615,248509.825129,-25609.8251294
438,3318 DAVIDSON DR,ANTELOPE,95843,CA,3,1,988,Residential,Mon May 19 00:00:00 EDT 2008,223139,38.705753,-121.388917,184191.289893,38947.7101073
439,913 COBDEN CT,GALT,95632,CA,4,2,1555,Residential,Mon May 19 00:00:00 EDT 2008,225500,38.282001,-121.295902,248509.825129,-23009.8251294
440,4419 79TH ST,SACRAMENTO,95820,CA,3,2,1212,Residential,Mon May 19 00:00:00 EDT 2008,228327,38.534827,-121.412545,248509.825129,-20182.8251294
441,3012 SPOONWOOD WAY,SACRAMENTO,95833,CA,4,2,1871,Residential,Mon May 19 00:00:00 EDT 2008,230000,38.62478,-121.523474,248509.825129,-18509.8251294
442,8728 CRYSTAL RIVER WAY,SACRAMENTO,95828,CA,3,2,1302,Residential,Mon May 19 00:00:00 EDT 2008,230000,38.47547,-121.380055,248509.825129,-18509.8251294
443,4709 AMBER LN Unit 1,SACRAMENTO,95841,CA,2,1,756,Condo,Mon May 19 00:00:00 EDT 2008,230522,38.657789,-121.354994,184191.289893,46330.7101073
444,4508 OLD DAIRY DR,ANTELOPE,95843,CA,4,3,2026,Residential,Mon May 19 00:00:00 EDT 2008,231200,38.72286,-121.358939,312828.360366,-81628.3603661
445,312 RIVER ISLE WAY,SACRAMENTO,95831,CA,3,2,1375,Residential,Mon May 19 00:00:00 EDT 2008,232000,38.49026,-121.550527,248509.825129,-16509.8251294
446,301 OLIVADI WAY,SACRAMENTO,95834,CA,2,2,1250,Condo,Mon May 19 00:00:00 EDT 2008,232500,38.644406,-121.549049,248509.825129,-16009.8251294
447,5636 25TH ST,SACRAMENTO,95822,CA,3,1,1058,Residential,Mon May 19 00:00:00 EDT 2008,233641,38.523828,-121.481139,184191.289893,49449.7101073
448,8721 SPRUCE RIDGE WAY,ANTELOPE,95843,CA,3,2,1187,Residential,Mon May 19 00:00:00 EDT 2008,234000,38.727657,-121.391028,248509.825129,-14509.8251294
449,7461 WINDBRIDGE DR,SACRAMENTO,95831,CA,2,2,1324,Residential,Mon May 19 00:00:00 EDT 2008,234500,38.48797,-121.530229,248509.825129,-14009.8251294
450,8101 LEMON COVE CT,SACRAMENTO,95828,CA,4,3,1936,Residential,Mon May 19 00:00:00 EDT 2008,235000,38.462981,-121.408288,312828.360366,-77828.3603661
451,10949 SCOTSMAN WAY,RANCHO CORDOVA,95670,CA,5,4,2382,Multi-Family,Mon May 19 00:00:00 EDT 2008,236000,38.603686,-121.277844,377146.895603,-141146.895603
452,617 WILLOW CREEK DR,FOLSOM,95630,CA,3,2,1427,Residential,Mon May 19 00:00:00 EDT 2008,236073,38.679626,-121.142609,248509.825129,-12436.8251294
453,3301 PARK DR Unit 1914,SACRAMENTO,95835,CA,3,2,1678,Condo,Mon May 19 00:00:00 EDT 2008,238000,38.665296,-121.531993,248509.825129,-10509.8251294
454,709 CIMMARON CT,GALT,95632,CA,4,2,1798,Residential,Mon May 19 00:00:00 EDT 2008,238861,38.277177,-121.303747,248509.825129,-9648.8251294
455,3305 RIO ROCA CT,ANTELOPE,95843,CA,4,3,2652,Residential,Mon May 19 00:00:00 EDT 2008,239700,38.725079,-121.387698,312828.360366,-73128.3603661
456,9080 BEDROCK CT,SACRAMENTO,95829,CA,4,2,1816,Residential,Mon May 19 00:00:00 EDT 2008,240000,38.456939,-121.362965,248509.825129,-8509.8251294
457,100 TOURMALINE CIR,SACRAMENTO,95834,CA,5,3,3076,Residential,Mon May 19 00:00:00 EDT 2008,240000,38.63437,-121.510779,312828.360366,-72828.3603661
458,6411 RED BIRCH WAY,ELK GROVE,95758,CA,4,2,1844,Residential,Mon May 19 00:00:00 EDT 2008,241000,38.43461,-121.429316,248509.825129,-7509.8251294
459,4867 LAGUNA DR,SACRAMENTO,95823,CA,3,2,1306,Residential,Mon May 19 00:00:00 EDT 2008,245000,38.46179,-121.445371,248509.825129,-3509.8251294
460,3662 RIVER DR,SACRAMENTO,95833,CA,4,3,2447,Residential,Mon May 19 00:00:00 EDT 2008,246000,38.604969,-121.54255,312828.360366,-66828.3603661
461,6943 WOLFGRAM WAY,SACRAMENTO,95828,CA,4,2,1176,Residential,Mon May 19 00:00:00 EDT 2008,247234,38.489215,-121.419546,248509.825129,-1275.8251294
462,77 RINETTI WAY,RIO LINDA,95673,CA,4,2,1182,Residential,Mon May 19 00:00:00 EDT 2008,247480,38.687021,-121.463151,248509.825129,-1029.8251294
463,1316 I ST,RIO LINDA,95673,CA,3,1,1160,Residential,Mon May 19 00:00:00 EDT 2008,249862,38.683674,-121.435204,184191.289893,65670.7101073
464,2130 CATHERWOOD WAY,SACRAMENTO,95835,CA,3,2,1424,Residential,Mon May 19 00:00:00 EDT 2008,251000,38.675506,-121.510987,248509.825129,2490.1748706
465,8304 JUGLANS DR,ORANGEVALE,95662,CA,4,2,1574,Residential,Mon May 19 00:00:00 EDT 2008,252155,38.691829,-121.249033,248509.825129,3645.1748706
466,5308 MARBURY WAY,ANTELOPE,95843,CA,3,2,1830,Residential,Mon May 19 00:00:00 EDT 2008,254172,38.710221,-121.341707,248509.825129,5662.1748706
467,9182 LAKEMONT DR,ELK GROVE,95624,CA,4,2,1724,Residential,Mon May 19 00:00:00 EDT 2008,258000,38.451353,-121.358776,248509.825129,9490.1748706
468,2231 COUNTRY VILLA CT,AUBURN,95603,CA,2,2,1255,Condo,Mon May 19 00:00:00 EDT 2008,260000,38.931671,-121.097862,248509.825129,11490.1748706
469,8491 CRYSTAL WALK CIR,ELK GROVE,95758,CA,0,0,0,Residential,Mon May 19 00:00:00 EDT 2008,261000,38.416916,-121.407554,119872.754656,141127.245344
470,361 MAHONIA CIR,SACRAMENTO,95835,CA,4,3,2175,Residential,Mon May 19 00:00:00 EDT 2008,261000,38.676172,-121.509761,312828.360366,-51828.3603661
471,3427 LA CADENA WAY,SACRAMENTO,95835,CA,4,2,1904,Residential,Mon May 19 00:00:00 EDT 2008,261000,38.681194,-121.537351,248509.825129,12490.1748706
472,955 BIG SUR CT,EL DORADO HILLS,95762,CA,4,2,1808,Residential,Mon May 19 00:00:00 EDT 2008,262500,38.664347,-121.076529,248509.825129,13990.1748706
473,11826 DIONYSUS WAY,RANCHO CORDOVA,95742,CA,4,2,2711,Residential,Mon May 19 00:00:00 EDT 2008,266000,38.551046,-121.239411,248509.825129,17490.1748706
474,5847 DEL CAMPO LN,CARMICHAEL,95608,CA,3,1,1713,Residential,Mon May 19 00:00:00 EDT 2008,266000,38.671995,-121.324339,184191.289893,81808.7101073
475,5635 FOXVIEW WAY,ELK GROVE,95757,CA,3,2,1457,Residential,Mon May 19 00:00:00 EDT 2008,270000,38.395256,-121.438249,248509.825129,21490.1748706
476,10372 VIA CINTA CT,ELK GROVE,95757,CA,4,3,2724,Residential,Mon May 19 00:00:00 EDT 2008,274425,38.380089,-121.428186,312828.360366,-38403.3603661
477,6286 LONETREE BLVD,ROCKLIN,95765,CA,0,0,0,Residential,Mon May 19 00:00:00 EDT 2008,274500,38.805036,-121.293608,119872.754656,154627.245344
478,7744 SOUTHBREEZE DR,SACRAMENTO,95828,CA,3,2,1468,Residential,Mon May 19 00:00:00 EDT 2008,275336,38.476932,-121.378349,248509.825129,26826.1748706
479,2242 ABLE WAY,SACRAMENTO,95835,CA,4,3,2550,Residential,Mon May 19 00:00:00 EDT 2008,277980,38.666074,-121.509743,312828.360366,-34848.3603661
480,1042 STARBROOK DR,GALT,95632,CA,4,2,1928,Residential,Mon May 19 00:00:00 EDT 2008,280000,38.285611,-121.293063,248509.825129,31490.1748706
481,1219 G ST,SACRAMENTO,95814,CA,3,3,1922,Residential,Mon May 19 00:00:00 EDT 2008,284686,38.582818,-121.489096,312828.360366,-28142.3603661
482,6220 OPUS CT,CITRUS HEIGHTS,95621,CA,3,2,1343,Residential,Mon May 19 00:00:00 EDT 2008,284893,38.715853,-121.317095,248509.825129,36383.1748706
483,5419 HAVENHURST CIR,ROCKLIN,95677,CA,3,2,1510,Residential,Mon May 19 00:00:00 EDT 2008,285000,38.786746,-121.209957,248509.825129,36490.1748706
484,220 OLD AIRPORT RD,AUBURN,95603,CA,2,2,960,Multi-Family,Mon May 19 00:00:00 EDT 2008,285000,38.939802,-121.054575,248509.825129,36490.1748706
485,4622 MEYER WAY,CARMICHAEL,95608,CA,4,2,1559,Residential,Mon May 19 00:00:00 EDT 2008,285000,38.64913,-121.310667,248509.825129,36490.1748706
486,4885 SUMMIT VIEW DR,EL DORADO,95623,CA,3,2,1624,Residential,Mon May 19 00:00:00 EDT 2008,289000,38.673285,-120.879176,248509.825129,40490.1748706
487,26 JEANROSS CT,SACRAMENTO,95832,CA,5,3,2992,Residential,Mon May 19 00:00:00 EDT 2008,295000,38.473162,-121.491085,312828.360366,-17828.3603661
488,4800 MAPLEPLAIN AVE,ELK GROVE,95758,CA,4,2,2109,Residential,Mon May 19 00:00:00 EDT 2008,296000,38.432848,-121.449237,248509.825129,47490.1748706
489,10629 BASIE WAY,RANCHO CORDOVA,95670,CA,4,2,1524,Residential,Mon May 19 00:00:00 EDT 2008,296056,38.579,-121.292627,248509.825129,47546.1748706
490,8612 WILLOW GROVE WAY,SACRAMENTO,95828,CA,3,2,1248,Residential,Mon May 19 00:00:00 EDT 2008,297359,38.464994,-121.386962,248509.825129,48849.1748706
491,62 DE FER CIR,SACRAMENTO,95823,CA,4,2,1876,Residential,Mon May 19 00:00:00 EDT 2008,299940,38.49254,-121.463316,248509.825129,51430.1748706
492,2513 OLD KENMARE RD,LINCOLN,95648,CA,5,3,0,Residential,Mon May 19 00:00:00 EDT 2008,304000,38.847396,-121.259586,312828.360366,-8828.3603661
493,3253 ABOTO WAY,RANCHO CORDOVA,95670,CA,4,3,1851,Residential,Mon May 19 00:00:00 EDT 2008,305000,38.57727,-121.285591,312828.360366,-7828.3603661
494,3072 VILLAGE PLAZA DR,ROSEVILLE,95747,CA,0,0,0,Residential,Mon May 19 00:00:00 EDT 2008,307000,38.773094,-121.365905,119872.754656,187127.245344
495,251 CHANGO CIR,SACRAMENTO,95835,CA,4,2,2218,Residential,Mon May 19 00:00:00 EDT 2008,311328,38.68237,-121.539147,248509.825129,62818.1748706
496,8205 WEYBURN CT,SACRAMENTO,95828,CA,3,2,1394,Residential,Mon May 19 00:00:00 EDT 2008,313138,38.47316,-121.403893,248509.825129,64628.1748706
497,8788 LA MARGARITA WAY,SACRAMENTO,95828,CA,3,2,1410,Residential,Mon May 19 00:00:00 EDT 2008,316630,38.468185,-121.375694,248509.825129,68120.1748706
498,5912 DEEPDALE WAY,ELK GROVE,95758,CA,5,3,3468,Residential,Mon May 19 00:00:00 EDT 2008,320000,38.439565,-121.436606,312828.360366,7171.6396339
499,4712 PISMO BEACH DR,ANTELOPE,95843,CA,5,3,2346,Residential,Mon May 19 00:00:00 EDT 2008,320000,38.707705,-121.354153,312828.360366,7171.6396339
500,4741 PACIFIC PARK DR,ANTELOPE,95843,CA,5,3,2347,Residential,Mon May 19 00:00:00 EDT 2008,325000,38.709299,-121.353056,312828.360366,12171.6396339
501,310 GROTH CIR,SACRAMENTO,95834,CA,4,2,1659,Residential,Mon May 19 00:00:00 EDT 2008,328578,38.638764,-121.531827,248509.825129,80068.1748706
502,6121 WILD FOX CT,ELK GROVE,95757,CA,3,3,2442,Residential,Mon May 19 00:00:00 EDT 2008,331000,38.406758,-121.431669,312828.360366,18171.6396339
503,12241 CANYONLANDS DR,RANCHO CORDOVA,95742,CA,0,0,0,Residential,Mon May 19 00:00:00 EDT 2008,331500,38.557293,-121.217611,119872.754656,211627.245344
504,29 COOL FOUNTAIN CT,SACRAMENTO,95833,CA,4,2,2155,Residential,Mon May 19 00:00:00 EDT 2008,340000,38.606906,-121.54132,248509.825129,91490.1748706
505,907 RIO ROBLES AVE,SACRAMENTO,95838,CA,0,0,0,Residential,Mon May 19 00:00:00 EDT 2008,344755,38.664765,-121.445006,119872.754656,224882.245344
506,8909 BILLFISH WAY,SACRAMENTO,95828,CA,3,2,1810,Residential,Mon May 19 00:00:00 EDT 2008,345746,38.475433,-121.372584,248509.825129,97236.1748706
507,6232 GUS WAY,ELK GROVE,95757,CA,4,2,2789,Residential,Mon May 19 00:00:00 EDT 2008,351000,38.388129,-121.43117,248509.825129,102490.174871
508,200 OAKWILDE ST,GALT,95632,CA,4,2,1606,Residential,Mon May 19 00:00:00 EDT 2008,353767,38.2535,-121.31812,248509.825129,105257.174871
509,1033 PARK STREAM DR,GALT,95632,CA,0,0,0,Residential,Mon May 19 00:00:00 EDT 2008,355000,38.287785,-121.289903,119872.754656,235127.245344
510,200 ALLAIRE CIR,SACRAMENTO,95835,CA,4,2,2166,Residential,Mon May 19 00:00:00 EDT 2008,356035,38.68318,-121.53484,248509.825129,107525.174871
511,1322 SUTTER WALK,SACRAMENTO,95816,CA,0,0,0,Condo,Mon May 19 00:00:00 EDT 2008,360000,38.53805,-121.5047,119872.754656,240127.245344
512,5479 NICKMAN WAY,SACRAMENTO,95835,CA,4,2,1871,Residential,Mon May 19 00:00:00 EDT 2008,360552,38.672966,-121.502748,248509.825129,112042.174871
513,2103 BURBERRY WAY,SACRAMENTO,95835,CA,3,2,1800,Residential,Mon May 19 00:00:00 EDT 2008,362305,38.67342,-121.508542,248509.825129,113795.174871
514,2450 SAN JOSE WAY,SACRAMENTO,95817,CA,3,1,1683,Residential,Mon May 19 00:00:00 EDT 2008,365000,38.553596,-121.459483,184191.289893,180808.710107
515,7641 ROSEHALL DR,ROSEVILLE,95678,CA,3,2,0,Residential,Mon May 19 00:00:00 EDT 2008,367554,38.791617,-121.286147,248509.825129,119044.174871
516,1336 LAYSAN TEAL DR,ROSEVILLE,95747,CA,0,0,0,Residential,Mon May 19 00:00:00 EDT 2008,368500,38.796121,-121.319963,119872.754656,248627.245344
517,2802 BLACK OAK DR,ROCKLIN,95765,CA,2,2,1596,Residential,Mon May 19 00:00:00 EDT 2008,370000,38.837006,-121.232024,248509.825129,121490.174871
518,2113 FALL TRAIL CT,PLACERVILLE,95667,CA,4,2,0,Residential,Mon May 19 00:00:00 EDT 2008,371086,38.733155,-120.748039,248509.825129,122576.174871
519,10112 LAMBEAU CT,ELK GROVE,95757,CA,3,2,1179,Residential,Mon May 19 00:00:00 EDT 2008,378000,38.390328,-121.448022,248509.825129,129490.174871
520,6313 CASTRO VERDE WAY,ELK GROVE,95757,CA,0,0,0,Residential,Mon May 19 00:00:00 EDT 2008,383000,38.381102,-121.42901,119872.754656,263127.245344
521,3622 CURTIS DR,SACRAMENTO,95818,CA,3,1,1639,Residential,Mon May 19 00:00:00 EDT 2008,388000,38.541735,-121.480098,184191.289893,203808.710107
522,11817 OPAL RIDGE WAY,RANCHO CORDOVA,95742,CA,5,3,3281,Residential,Mon May 19 00:00:00 EDT 2008,395100,38.551083,-121.237476,312828.360366,82271.6396339
523,170 LAGOMARSINO WAY,SACRAMENTO,95819,CA,3,2,1697,Residential,Mon May 19 00:00:00 EDT 2008,400000,38.574894,-121.435806,248509.825129,151490.174871
524,2743 DEAKIN PL,EL DORADO HILLS,95762,CA,3,2,0,Residential,Mon May 19 00:00:00 EDT 2008,400000,38.69288,-121.073551,248509.825129,151490.174871
525,3361 ALDER CANYON WAY,ANTELOPE,95843,CA,4,3,2085,Residential,Mon May 19 00:00:00 EDT 2008,408431,38.727649,-121.385656,312828.360366,95602.6396339
526,2148 RANCH VIEW DR,ROCKLIN,95765,CA,0,0,0,Residential,Mon May 19 00:00:00 EDT 2008,413000,38.837455,-121.289337,119872.754656,293127.245344
527,398 LINDLEY DR,SACRAMENTO,95815,CA,4,2,1744,Multi-Family,Mon May 19 00:00:00 EDT 2008,416767,38.622359,-121.457582,248509.825129,168257.174871
528,3013 BRIDLEWOOD DR,EL DORADO HILLS,95762,CA,4,3,0,Residential,Mon May 19 00:00:00 EDT 2008,420000,38.675519,-121.015862,312828.360366,107171.639634
529,169 BAURER CIR,FOLSOM,95630,CA,4,3,1939,Residential,Mon May 19 00:00:00 EDT 2008,423000,38.66695,-121.120729,312828.360366,110171.639634
530,2809 LOON CT,CAMERON PARK,95682,CA,4,2,0,Residential,Mon May 19 00:00:00 EDT 2008,423000,38.687072,-121.004729,248509.825129,174490.174871
531,1315 KONDOS AVE,SACRAMENTO,95814,CA,2,3,1788,Residential,Mon May 19 00:00:00 EDT 2008,427500,38.571943,-121.492106,312828.360366,114671.639634
532,4966 CHARTER RD,ROCKLIN,95765,CA,3,2,1691,Residential,Mon May 19 00:00:00 EDT 2008,430922,38.82553,-121.254698,248509.825129,182412.174871
533,9516 LAGUNA LAKE WAY,ELK GROVE,95758,CA,4,2,2002,Residential,Mon May 19 00:00:00 EDT 2008,445000,38.411258,-121.431348,248509.825129,196490.174871
534,5201 BLOSSOM RANCH DR,ELK GROVE,95757,CA,4,4,4303,Residential,Mon May 19 00:00:00 EDT 2008,450000,38.399436,-121.444041,377146.895603,72853.1043972
535,3027 PALMATE WAY,SACRAMENTO,95834,CA,5,3,4246,Residential,Mon May 19 00:00:00 EDT 2008,452000,38.628955,-121.529269,312828.360366,139171.639634
536,500 WINCHESTER CT,ROSEVILLE,95661,CA,3,2,2274,Residential,Mon May 19 00:00:00 EDT 2008,470000,38.73988,-121.248929,248509.825129,221490.174871
537,5746 GELSTON WAY,EL DORADO HILLS,95762,CA,4,3,0,Residential,Mon May 19 00:00:00 EDT 2008,471000,38.677015,-121.034083,312828.360366,158171.639634
538,6935 ELM TREE LN,ORANGEVALE,95662,CA,4,4,3056,Residential,Mon May 19 00:00:00 EDT 2008,475000,38.693041,-121.23294,377146.895603,97853.1043972
539,9605 GOLF COURSE LN,ELK GROVE,95758,CA,3,3,2503,Residential,Mon May 19 00:00:00 EDT 2008,484500,38.409689,-121.446059,312828.360366,171671.639634
540,719 BAYWOOD CT,EL DORADO HILLS,95762,CA,5,3,0,Residential,Mon May 19 00:00:00 EDT 2008,487500,38.647598,-121.077801,312828.360366,174671.639634
541,5954 TANUS CIR,ROCKLIN,95677,CA,3,3,0,Residential,Mon May 19 00:00:00 EDT 2008,488750,38.777585,-121.2036,312828.360366,175921.639634
542,100 CHELSEA CT,FOLSOM,95630,CA,3,2,1905,Residential,Mon May 19 00:00:00 EDT 2008,500000,38.69435,-121.177259,248509.825129,251490.174871
543,1500 ORANGE HILL LN,PENRYN,95663,CA,3,2,1320,Residential,Mon May 19 00:00:00 EDT 2008,506688,38.862708,-121.162092,248509.825129,258178.174871
544,408 KIRKWOOD CT,LINCOLN,95648,CA,2,2,0,Residential,Mon May 19 00:00:00 EDT 2008,512000,38.861615,-121.26869,248509.825129,263490.174871
545,1732 TUSCAN GROVE CIR,ROSEVILLE,95747,CA,5,3,0,Residential,Mon May 19 00:00:00 EDT 2008,520000,38.796683,-121.342555,312828.360366,207171.639634
546,2049 EMPIRE MINE CIR,GOLD RIVER,95670,CA,4,2,3037,Residential,Mon May 19 00:00:00 EDT 2008,528000,38.629299,-121.249021,248509.825129,279490.174871
547,9360 MAGOS RD,WILTON,95693,CA,5,2,3741,Residential,Mon May 19 00:00:00 EDT 2008,579093,38.416809,-121.240628,248509.825129,330583.174871
548,104 CATLIN CT,FOLSOM,95630,CA,4,3,2660,Residential,Mon May 19 00:00:00 EDT 2008,636000,38.684459,-121.145935,312828.360366,323171.639634
549,4734 GIBBONS DR,CARMICHAEL,95608,CA,4,3,3357,Residential,Mon May 19 00:00:00 EDT 2008,668365,38.63558,-121.353639,312828.360366,355536.639634
550,4629 DORCHESTER LN,GRANITE BAY,95746,CA,5,3,2896,Residential,Mon May 19 00:00:00 EDT 2008,676200,38.723545,-121.216025,312828.360366,363371.639634
551,2400 COUNTRYSIDE DR,PLACERVILLE,95667,CA,3,2,2025,Residential,Mon May 19 00:00:00 EDT 2008,677048,38.737452,-120.910963,248509.825129,428538.174871
552,12901 FURLONG DR,WILTON,95693,CA,5,3,3788,Residential,Mon May 19 00:00:00 EDT 2008,691659,38.413535,-121.188211,312828.360366,378830.639634
553,6222 CALLE MONTALVO CIR,GRANITE BAY,95746,CA,5,3,3670,Residential,Mon May 19 00:00:00 EDT 2008,760000,38.779435,-121.146676,312828.360366,447171.639634
554,20 CRYSTALWOOD CIR,LINCOLN,95648,CA,0,0,0,Residential,Mon May 19 00:00:00 EDT 2008,4897,38.885327,-121.289412,119872.754656,-114975.754656
555,24 CRYSTALWOOD CIR,LINCOLN,95648,CA,0,0,0,Residential,Mon May 19 00:00:00 EDT 2008,4897,38.885132,-121.289405,119872.754656,-114975.754656
556,28 CRYSTALWOOD CIR,LINCOLN,95648,CA,0,0,0,Residential,Mon May 19 00:00:00 EDT 2008,4897,38.884936,-121.289397,119872.754656,-114975.754656
557,32 CRYSTALWOOD CIR,LINCOLN,95648,CA,0,0,0,Residential,Mon May 19 00:00:00 EDT 2008,4897,38.884741,-121.28939,119872.754656,-114975.754656
558,36 CRYSTALWOOD CIR,LINCOLN,95648,CA,0,0,0,Residential,Mon May 19 00:00:00 EDT 2008,4897,38.884599,-121.289406,119872.754656,-114975.754656
559,40 CRYSTALWOOD CIR,LINCOLN,95648,CA,0,0,0,Residential,Mon May 19 00:00:00 EDT 2008,4897,38.884535,-121.289619,119872.754656,-114975.754656
560,44 CRYSTALWOOD CIR,LINCOLN,95648,CA,0,0,0,Residential,Mon May 19 00:00:00 EDT 2008,4897,38.88459,-121.289835,119872.754656,-114975.754656
561,48 CRYSTALWOOD CIR,LINCOLN,95648,CA,0,0,0,Residential,Mon May 19 00:00:00 EDT 2008,4897,38.884667,-121.289896,119872.754656,-114975.754656
562,52 CRYSTALWOOD CIR,LINCOLN,95648,CA,0,0,0,Residential,Mon May 19 00:00:00 EDT 2008,4897,38.88478,-121.289911,119872.754656,-114975.754656
563,68 CRYSTALWOOD CIR,LINCOLN,95648,CA,0,0,0,Residential,Mon May 19 00:00:00 EDT 2008,4897,38.885236,-121.289928,119872.754656,-114975.754656
564,72 CRYSTALWOOD CIR,LINCOLN,95648,CA,0,0,0,Residential,Mon May 19 00:00:00 EDT 2008,4897,38.88535,-121.289926,119872.754656,-114975.754656
565,76 CRYSTALWOOD CIR,LINCOLN,95648,CA,0,0,0,Residential,Mon May 19 00:00:00 EDT 2008,4897,38.885464,-121.289922,119872.754656,-114975.754656
566,80 CRYSTALWOOD CIR,LINCOLN,95648,CA,0,0,0,Residential,Mon May 19 00:00:00 EDT 2008,4897,38.885578,-121.289919,119872.754656,-114975.754656
567,84 CRYSTALWOOD CIR,LINCOLN,95648,CA,0,0,0,Residential,Mon May 19 00:00:00 EDT 2008,4897,38.885692,-121.289915,119872.754656,-114975.754656
568,88 CRYSTALWOOD CIR,LINCOLN,95648,CA,0,0,0,Residential,Mon May 19 00:00:00 EDT 2008,4897,38.885806,-121.289911,119872.754656,-114975.754656
569,92 CRYSTALWOOD CIR,LINCOLN,95648,CA,0,0,0,Residential,Mon May 19 00:00:00 EDT 2008,4897,38.88592,-121.289908,119872.754656,-114975.754656
570,96 CRYSTALWOOD CIR,LINCOLN,95648,CA,0,0,0,Residential,Mon May 19 00:00:00 EDT 2008,4897,38.886024,-121.289859,119872.754656,-114975.754656
571,100 CRYSTALWOOD CIR,LINCOLN,95648,CA,0,0,0,Residential,Mon May 19 00:00:00 EDT 2008,4897,38.886091,-121.289744,119872.754656,-114975.754656
572,434 1ST ST,LINCOLN,95648,CA,0,0,0,Residential,Mon May 19 00:00:00 EDT 2008,4897,38.88653,-121.289406,119872.754656,-114975.754656
573,3 E ST,LINCOLN,95648,CA,0,0,0,Residential,Mon May 19 00:00:00 EDT 2008,4897,38.884692,-121.290288,119872.754656,-114975.754656
574,11 E ST,LINCOLN,95648,CA,0,0,0,Residential,Mon May 19 00:00:00 EDT 2008,4897,38.884879,-121.290257,119872.754656,-114975.754656
575,19 E ST,LINCOLN,95648,CA,0,0,0,Residential,Mon May 19 00:00:00 EDT 2008,4897,38.885017,-121.290262,119872.754656,-114975.754656
576,27 E ST,LINCOLN,95648,CA,0,0,0,Residential,Mon May 19 00:00:00 EDT 2008,4897,38.885173,-121.29027,119872.754656,-114975.754656
577,35 E ST,LINCOLN,95648,CA,0,0,0,Residential,Mon May 19 00:00:00 EDT 2008,4897,38.885328,-121.290275,119872.754656,-114975.754656
578,43 E ST,LINCOLN,95648,CA,0,0,0,Residential,Mon May 19 00:00:00 EDT 2008,4897,38.885483,-121.290277,119872.754656,-114975.754656
579,51 E ST,LINCOLN,95648,CA,4,2,0,Residential,Mon May 19 00:00:00 EDT 2008,4897,38.885638,-121.290279,248509.825129,-243612.825129
580,59 E ST,LINCOLN,95648,CA,3,2,0,Residential,Mon May 19 00:00:00 EDT 2008,4897,38.885794,-121.290281,248509.825129,-243612.825129
581,75 E ST,LINCOLN,95648,CA,3,2,0,Residential,Mon May 19 00:00:00 EDT 2008,4897,38.886104,-121.290285,248509.825129,-243612.825129
582,63 CRYSTALWOOD CIR,LINCOLN,95648,CA,0,0,0,Residential,Mon May 19 00:00:00 EDT 2008,4897,38.885093,-121.289932,119872.754656,-114975.754656
583,398 1ST ST,LINCOLN,95648,CA,0,0,0,Residential,Mon May 19 00:00:00 EDT 2008,4897,38.88653,-121.288952,119872.754656,-114975.754656
584,386 1ST ST,LINCOLN,95648,CA,0,0,0,Residential,Mon May 19 00:00:00 EDT 2008,4897,38.886528,-121.288869,119872.754656,-114975.754656
585,374 1ST ST,LINCOLN,95648,CA,0,0,0,Residential,Mon May 19 00:00:00 EDT 2008,4897,38.886525,-121.288787,119872.754656,-114975.754656
586,116 CRYSTALWOOD WAY,LINCOLN,95648,CA,0,0,0,Residential,Mon May 19 00:00:00 EDT 2008,4897,38.886282,-121.289586,119872.754656,-114975.754656
587,108 CRYSTALWOOD WAY,LINCOLN,95648,CA,0,0,0,Residential,Mon May 19 00:00:00 EDT 2008,4897,38.886282,-121.289646,119872.754656,-114975.754656
588,100 CRYSTALWOOD WAY,LINCOLN,95648,CA,0,0,0,Residential,Mon May 19 00:00:00 EDT 2008,4897,38.886282,-121.289706,119872.754656,-114975.754656
589,55 CRYSTALWOOD CIR,LINCOLN,95648,CA,0,0,0,Residential,Mon May 19 00:00:00 EDT 2008,4897,38.884865,-121.289922,119872.754656,-114975.754656
590,51 CRYSTALWOOD CIR,LINCOLN,95648,CA,0,0,0,Residential,Mon May 19 00:00:00 EDT 2008,4897,38.884752,-121.289907,119872.754656,-114975.754656
591,47 CRYSTALWOOD CIR,LINCOLN,95648,CA,0,0,0,Residential,Mon May 19 00:00:00 EDT 2008,4897,38.884638,-121.289893,119872.754656,-114975.754656
592,43 CRYSTALWOOD CIR,LINCOLN,95648,CA,0,0,0,Residential,Mon May 19 00:00:00 EDT 2008,4897,38.884568,-121.289784,119872.754656,-114975.754656
593,39 CRYSTALWOOD CIR,LINCOLN,95648,CA,0,0,0,Residential,Mon May 19 00:00:00 EDT 2008,4897,38.884546,-121.289562,119872.754656,-114975.754656
594,35 CRYSTALWOOD CIR,LINCOLN,95648,CA,0,0,0,Residential,Mon May 19 00:00:00 EDT 2008,4897,38.884645,-121.289397,119872.754656,-114975.754656
595,31 CRYSTALWOOD CIR,LINCOLN,95648,CA,0,0,0,Residential,Mon May 19 00:00:00 EDT 2008,4897,38.88479,-121.289392,119872.754656,-114975.754656
596,27 CRYSTALWOOD CIR,LINCOLN,95648,CA,0,0,0,Residential,Mon May 19 00:00:00 EDT 2008,4897,38.884985,-121.289399,119872.754656,-114975.754656
597,23 CRYSTALWOOD CIR,LINCOLN,95648,CA,0,0,0,Residential,Mon May 19 00:00:00 EDT 2008,4897,38.885181,-121.289406,119872.754656,-114975.754656
598,19 CRYSTALWOOD CIR,LINCOLN,95648,CA,0,0,0,Residential,Mon May 19 00:00:00 EDT 2008,4897,38.885376,-121.289414,119872.754656,-114975.754656
599,15 CRYSTALWOOD CIR,LINCOLN,95648,CA,0,0,0,Residential,Mon May 19 00:00:00 EDT 2008,4897,38.885571,-121.289421,119872.754656,-114975.754656
600,7 CRYSTALWOOD CIR,LINCOLN,95648,CA,0,0,0,Residential,Mon May 19 00:00:00 EDT 2008,4897,38.885962,-121.289436,119872.754656,-114975.754656
601,7 CRYSTALWOOD CIR,LINCOLN,95648,CA,0,0,0,Residential,Mon May 19 00:00:00 EDT 2008,4897,38.885962,-121.289436,119872.754656,-114975.754656
602,3 CRYSTALWOOD CIR,LINCOLN,95648,CA,0,0,0,Residential,Mon May 19 00:00:00 EDT 2008,4897,38.886093,-121.289584,119872.754656,-114975.754656
603,8208 WOODYARD WAY,CITRUS HEIGHTS,95621,CA,3,2,1166,Residential,Fri May 16 00:00:00 EDT 2008,30000,38.715322,-121.314787,248509.825129,-218509.825129
604,113 RINETTI WAY,RIO LINDA,95673,CA,0,0,0,Residential,Fri May 16 00:00:00 EDT 2008,30000,38.687172,-121.463933,119872.754656,-89872.754656
605,15 LOORZ CT,SACRAMENTO,95823,CA,2,1,838,Residential,Fri May 16 00:00:00 EDT 2008,55422,38.471646,-121.435158,184191.289893,-128769.289893
606,5805 DOTMAR WAY,NORTH HIGHLANDS,95660,CA,2,1,904,Residential,Fri May 16 00:00:00 EDT 2008,63000,38.672642,-121.380343,184191.289893,-121191.289893
607,2332 CAMBRIDGE ST,SACRAMENTO,95815,CA,2,1,1032,Residential,Fri May 16 00:00:00 EDT 2008,65000,38.608085,-121.449651,184191.289893,-119191.289893
608,3812 BELDEN ST,SACRAMENTO,95838,CA,2,1,904,Residential,Fri May 16 00:00:00 EDT 2008,65000,38.636833,-121.44164,184191.289893,-119191.289893
609,3348 40TH ST,SACRAMENTO,95817,CA,2,1,1080,Residential,Fri May 16 00:00:00 EDT 2008,65000,38.544162,-121.460652,184191.289893,-119191.289893
610,127 QUASAR CIR,SACRAMENTO,95822,CA,2,2,990,Residential,Fri May 16 00:00:00 EDT 2008,66500,38.493504,-121.475304,248509.825129,-182009.825129
611,3812 CYPRESS ST,SACRAMENTO,95838,CA,2,1,900,Residential,Fri May 16 00:00:00 EDT 2008,71000,38.636877,-121.444948,184191.289893,-113191.289893
612,5821 64TH ST,SACRAMENTO,95824,CA,2,1,861,Residential,Fri May 16 00:00:00 EDT 2008,75000,38.521202,-121.428146,184191.289893,-109191.289893
613,8248 CENTER PKWY,SACRAMENTO,95823,CA,2,1,906,Condo,Fri May 16 00:00:00 EDT 2008,77000,38.459002,-121.428794,184191.289893,-107191.289893
614,1171 SONOMA AVE,SACRAMENTO,95815,CA,2,1,1011,Residential,Fri May 16 00:00:00 EDT 2008,85000,38.6238,-121.439872,184191.289893,-99191.2898927
615,4250 ARDWELL WAY,SACRAMENTO,95823,CA,3,2,1089,Residential,Fri May 16 00:00:00 EDT 2008,95625,38.466938,-121.455631,248509.825129,-152884.825129
616,3104 CLAY ST,SACRAMENTO,95815,CA,2,1,832,Residential,Fri May 16 00:00:00 EDT 2008,96140,38.62391,-121.439208,184191.289893,-88051.2898927
617,6063 LAND PARK DR,SACRAMENTO,95822,CA,2,1,800,Condo,Fri May 16 00:00:00 EDT 2008,104250,38.517029,-121.513809,184191.289893,-79941.2898927
618,4738 OAKHOLLOW DR,SACRAMENTO,95842,CA,4,2,1292,Residential,Fri May 16 00:00:00 EDT 2008,105000,38.679598,-121.356035,248509.825129,-143509.825129
619,1401 STERLING ST,SACRAMENTO,95822,CA,2,1,810,Residential,Fri May 16 00:00:00 EDT 2008,108000,38.520319,-121.504727,184191.289893,-76191.2898927
620,3715 DIDCOT CIR,SACRAMENTO,95838,CA,4,2,1064,Residential,Fri May 16 00:00:00 EDT 2008,109000,38.635232,-121.460098,248509.825129,-139509.825129
621,2426 RASHAWN DR,RANCHO CORDOVA,95670,CA,2,1,911,Residential,Fri May 16 00:00:00 EDT 2008,115000,38.610852,-121.273278,184191.289893,-69191.2898927
622,4800 WESTLAKE PKWY Unit 410,SACRAMENTO,95835,CA,1,1,846,Condo,Fri May 16 00:00:00 EDT 2008,115000,38.658812,-121.542345,184191.289893,-69191.2898927
623,3409 VIRGO ST,SACRAMENTO,95827,CA,3,2,1320,Residential,Fri May 16 00:00:00 EDT 2008,115500,38.563402,-121.327747,248509.825129,-133009.825129
624,1110 PINEDALE AVE,SACRAMENTO,95838,CA,3,2,1410,Residential,Fri May 16 00:00:00 EDT 2008,115620,38.660173,-121.440216,248509.825129,-132889.825129
625,2361 LA LOMA DR,RANCHO CORDOVA,95670,CA,3,2,1115,Residential,Fri May 16 00:00:00 EDT 2008,116000,38.59368,-121.316054,248509.825129,-132509.825129
626,1455 64TH AVE,SACRAMENTO,95822,CA,3,2,1169,Residential,Fri May 16 00:00:00 EDT 2008,122000,38.492177,-121.503392,248509.825129,-126509.825129
627,7328 SPRINGMAN ST,SACRAMENTO,95822,CA,3,2,1164,Residential,Fri May 16 00:00:00 EDT 2008,122500,38.491991,-121.477636,248509.825129,-126009.825129
628,119 SAINT MARIE CIR,SACRAMENTO,95823,CA,4,2,1341,Residential,Fri May 16 00:00:00 EDT 2008,123000,38.481454,-121.446644,248509.825129,-125509.825129
629,12 COSTA BRASE CT,SACRAMENTO,95838,CA,3,2,1219,Residential,Fri May 16 00:00:00 EDT 2008,124000,38.655554,-121.464275,248509.825129,-124509.825129
630,6813 SCOTER WAY,SACRAMENTO,95842,CA,4,2,1127,Residential,Fri May 16 00:00:00 EDT 2008,124000,38.69043,-121.361035,248509.825129,-124509.825129
631,6548 GRAYLOCK LN,NORTH HIGHLANDS,95660,CA,3,2,1272,Residential,Fri May 16 00:00:00 EDT 2008,124413,38.686061,-121.369949,248509.825129,-124096.825129
632,1630 GLIDDEN AVE,SACRAMENTO,95822,CA,4,2,1253,Residential,Fri May 16 00:00:00 EDT 2008,125000,38.482717,-121.499683,248509.825129,-123509.825129
633,7825 DALEWOODS WAY,SACRAMENTO,95828,CA,3,2,1120,Residential,Fri May 16 00:00:00 EDT 2008,130000,38.477297,-121.411513,248509.825129,-118509.825129
634,4073 TRESLER AVE,NORTH HIGHLANDS,95660,CA,2,2,1118,Residential,Fri May 16 00:00:00 EDT 2008,131750,38.659016,-121.370457,248509.825129,-116759.825129
635,4288 DYMIC WAY,SACRAMENTO,95838,CA,4,3,1890,Residential,Fri May 16 00:00:00 EDT 2008,137721,38.646541,-121.441139,312828.360366,-175107.360366
636,1158 SAN IGNACIO WAY,SACRAMENTO,95833,CA,3,2,1260,Residential,Fri May 16 00:00:00 EDT 2008,137760,38.623045,-121.486279,248509.825129,-110749.825129
637,4904 J PKWY,SACRAMENTO,95823,CA,3,2,1400,Residential,Fri May 16 00:00:00 EDT 2008,138000,38.487297,-121.44295,248509.825129,-110509.825129
638,2931 HOWE AVE,SACRAMENTO,95821,CA,3,1,1264,Residential,Fri May 16 00:00:00 EDT 2008,140000,38.619012,-121.415329,184191.289893,-44191.2898927
639,5531 JANSEN DR,SACRAMENTO,95824,CA,3,1,1060,Residential,Fri May 16 00:00:00 EDT 2008,145000,38.522015,-121.438713,184191.289893,-39191.2898927
640,7836 ORCHARD WOODS CIR,SACRAMENTO,95828,CA,2,2,1132,Residential,Fri May 16 00:00:00 EDT 2008,145000,38.47955,-121.410867,248509.825129,-103509.825129
641,4055 DEERBROOK DR,SACRAMENTO,95823,CA,3,2,1466,Residential,Fri May 16 00:00:00 EDT 2008,150000,38.472117,-121.459589,248509.825129,-98509.8251294
642,9937 BURLINE ST,SACRAMENTO,95827,CA,3,2,1092,Residential,Fri May 16 00:00:00 EDT 2008,150000,38.559641,-121.32316,248509.825129,-98509.8251294
643,6948 MIRADOR WAY,SACRAMENTO,95828,CA,4,2,1628,Residential,Fri May 16 00:00:00 EDT 2008,151000,38.493484,-121.42035,248509.825129,-97509.8251294
644,4909 RUGER CT,SACRAMENTO,95842,CA,3,2,960,Residential,Fri May 16 00:00:00 EDT 2008,155000,38.68747,-121.349234,248509.825129,-93509.8251294
645,7204 KERSTEN ST,CITRUS HEIGHTS,95621,CA,3,2,1075,Residential,Fri May 16 00:00:00 EDT 2008,155800,38.695863,-121.300814,248509.825129,-92709.8251294
646,3150 ROSEMONT DR,SACRAMENTO,95826,CA,3,2,1428,Residential,Fri May 16 00:00:00 EDT 2008,156142,38.554927,-121.35521,248509.825129,-92367.8251294
647,8200 STEINBECK WAY,SACRAMENTO,95828,CA,4,2,1358,Residential,Fri May 16 00:00:00 EDT 2008,158000,38.474854,-121.404726,248509.825129,-90509.8251294
648,8198 STEVENSON AVE,SACRAMENTO,95828,CA,6,4,2475,Multi-Family,Fri May 16 00:00:00 EDT 2008,159900,38.465271,-121.40426,377146.895603,-217246.895603
649,6824 OLIVE TREE WAY,CITRUS HEIGHTS,95610,CA,3,2,1410,Residential,Fri May 16 00:00:00 EDT 2008,160000,38.689239,-121.267737,248509.825129,-88509.8251294
650,3536 SUN MAIDEN WAY,ANTELOPE,95843,CA,3,2,1711,Residential,Fri May 16 00:00:00 EDT 2008,161500,38.70968,-121.382328,248509.825129,-87009.8251294
651,4517 OLYMPIAD WAY,SACRAMENTO,95826,CA,4,2,1483,Residential,Fri May 16 00:00:00 EDT 2008,161600,38.536751,-121.359154,248509.825129,-86909.8251294
652,925 COBDEN CT,GALT,95632,CA,3,2,1140,Residential,Fri May 16 00:00:00 EDT 2008,162000,38.282047,-121.295812,248509.825129,-86509.8251294
653,8225 SCOTTSDALE DR,SACRAMENTO,95828,CA,4,2,1549,Residential,Fri May 16 00:00:00 EDT 2008,165000,38.487864,-121.402476,248509.825129,-83509.8251294
654,8758 LEMAS RD,SACRAMENTO,95828,CA,3,2,1410,Residential,Fri May 16 00:00:00 EDT 2008,165000,38.467487,-121.377055,248509.825129,-83509.8251294
655,6121 ALPINESPRING WAY,ELK GROVE,95758,CA,3,2,1240,Residential,Fri May 16 00:00:00 EDT 2008,167293,38.434075,-121.432623,248509.825129,-81216.8251294
656,5937 YORK GLEN WAY,SACRAMENTO,95842,CA,5,2,1712,Residential,Fri May 16 00:00:00 EDT 2008,168000,38.677003,-121.354454,248509.825129,-80509.8251294
657,6417 SUNNYFIELD WAY,SACRAMENTO,95823,CA,4,2,1580,Residential,Fri May 16 00:00:00 EDT 2008,168000,38.449153,-121.428272,248509.825129,-80509.8251294
658,4008 GREY LIVERY WAY,ANTELOPE,95843,CA,3,2,1669,Residential,Fri May 16 00:00:00 EDT 2008,168750,38.71846,-121.370862,248509.825129,-79759.8251294
659,8920 ROSETTA CIR,SACRAMENTO,95826,CA,3,1,1029,Residential,Fri May 16 00:00:00 EDT 2008,168750,38.544374,-121.370874,184191.289893,-15441.2898927
660,8300 LICHEN DR,CITRUS HEIGHTS,95621,CA,3,1,1103,Residential,Fri May 16 00:00:00 EDT 2008,170000,38.71641,-121.306239,184191.289893,-14191.2898927
661,8884 AMBERJACK WAY,SACRAMENTO,95828,CA,3,2,2161,Residential,Fri May 16 00:00:00 EDT 2008,170250,38.479343,-121.372553,248509.825129,-78259.8251294
662,4480 VALLEY HI DR,SACRAMENTO,95823,CA,3,2,1650,Residential,Fri May 16 00:00:00 EDT 2008,173000,38.466781,-121.450955,248509.825129,-75509.8251294
663,2250 FOREBAY RD,POLLOCK PINES,95726,CA,3,1,1320,Residential,Fri May 16 00:00:00 EDT 2008,175000,38.77491,-120.597599,184191.289893,-9191.2898927
664,3529 FABERGE WAY,SACRAMENTO,95826,CA,3,2,1200,Residential,Fri May 16 00:00:00 EDT 2008,176095,38.553275,-121.346218,248509.825129,-72414.8251294
665,1792 DAWNELLE WAY,SACRAMENTO,95835,CA,3,2,1170,Residential,Fri May 16 00:00:00 EDT 2008,176250,38.68271,-121.501697,248509.825129,-72259.8251294
666,7800 TABARE CT,CITRUS HEIGHTS,95621,CA,3,2,1199,Residential,Fri May 16 00:00:00 EDT 2008,178000,38.70799,-121.302979,248509.825129,-70509.8251294
667,8531 HERMITAGE WAY,SACRAMENTO,95823,CA,4,2,1695,Residential,Fri May 16 00:00:00 EDT 2008,179000,38.448452,-121.428536,248509.825129,-69509.8251294
668,2421 BERRYWOOD DR,RANCHO CORDOVA,95670,CA,3,2,1157,Residential,Fri May 16 00:00:00 EDT 2008,180000,38.60868,-121.27849,248509.825129,-68509.8251294
669,1005 MORENO WAY,SACRAMENTO,95838,CA,3,2,1410,Residential,Fri May 16 00:00:00 EDT 2008,180000,38.646206,-121.442767,248509.825129,-68509.8251294
670,1675 VERNON ST Unit 24,ROSEVILLE,95678,CA,3,2,1174,Residential,Fri May 16 00:00:00 EDT 2008,180000,38.734136,-121.299639,248509.825129,-68509.8251294
671,24 WINDCHIME CT,SACRAMENTO,95823,CA,3,2,1593,Residential,Fri May 16 00:00:00 EDT 2008,181000,38.44617,-121.427824,248509.825129,-67509.8251294
672,540 HARLING CT,RIO LINDA,95673,CA,3,2,1093,Residential,Fri May 16 00:00:00 EDT 2008,182000,38.68279,-121.453509,248509.825129,-66509.8251294
673,1207 CRESCENDO DR,ROSEVILLE,95678,CA,3,2,1770,Residential,Fri May 16 00:00:00 EDT 2008,182587,38.72446,-121.292829,248509.825129,-65922.8251294
674,7577 EDDYLEE WAY,SACRAMENTO,95822,CA,4,2,1436,Residential,Fri May 16 00:00:00 EDT 2008,185074,38.48291,-121.491509,248509.825129,-63435.8251294
675,8369 FOPPIANO WAY,SACRAMENTO,95829,CA,3,2,1124,Residential,Fri May 16 00:00:00 EDT 2008,185833,38.453839,-121.357919,248509.825129,-62676.8251294
676,8817 SAWTELLE WAY,SACRAMENTO,95826,CA,4,2,1139,Residential,Fri May 16 00:00:00 EDT 2008,186785,38.565322,-121.374251,248509.825129,-61724.8251294
677,1910 BONAVISTA WAY,SACRAMENTO,95832,CA,3,2,1638,Residential,Fri May 16 00:00:00 EDT 2008,187000,38.476048,-121.494961,248509.825129,-61509.8251294
678,8 TIDE CT,SACRAMENTO,95833,CA,3,2,1328,Residential,Fri May 16 00:00:00 EDT 2008,188335,38.609864,-121.492304,248509.825129,-60174.8251294
